giata,giata_name,giata_latitude,giata_longitude,hilton,hilton_name,hilton_latitude,hilton_longitude,score
96293346,"Hampton Inn St. Charles St. Peters",38.792238,-90.558625,STLST,"Hampton Inn by Hilton St. Charles St. Peters",38.792454,-90.558701,33.491604
77918786,"Rome Cavalieri a Waldorf Astoria Resort",41.918868,12.446678,ROMHI,"Rome Cavalieri, A Waldorf Astoria Hotel",41.91721,12.44575,30.494818
56433495,"Hampton Inn Lexington I 75",38.043491557919,-84.423519819975,LEXEH,"Hampton Inn I-75 Lexington/Hamburg Area",38.043571,-84.423904,26.681252
94917037,"Hilton Zurich Airport",47.436981457481,8.571838438511,ZRHHI,"Hilton Zurich Airport",47.436969,8.571582,21.311707
18192262,"Hampton Inn Wheeling",40.07631113396,-80.69795662999,WHEWV,"Hampton Inn Wheeling",40.076107,-80.69915,20.16169
18519393,"Hilton Garden Inn Evansville",37.974532292572,-87.456498682857,EVVEV,"Hilton Garden Inn Evansville",37.97464,-87.456467,21.279055
11517291,"Hampton Inn Atlanta Town Center/Kennesaw",34.009341,-84.582651333333,ATLTC,"Hampton Inn Atlanta-Town Center/Kennesaw",34.007243,-84.585034,29.014511
99725291,"Hampton Inn Atlanta/Douglasville",33.731051297498,-84.740385649854,ATLDV,"Hampton Inn Atlanta/Douglasville-Arbor Place Mall",33.729739,-84.747206,25.288303
77532044,"Hampton Inn & Suites Boynton Beach",26.547444629284,-80.087110698223,BOYBH,"Hampton Inn & Suites Boynton Beach",26.546737,-80.089614,23.142193
21535095,"DoubleTree Suites by Hilton Hotel Doheny Beach - Dana Point",33.463729235534,-117.68123894124,SNADB,"Hilton Garden Inn Dana Point Doheny Beach",33.46378,-117.681244,21.457844
37673335,"Springhill Suites Nashville Brentwood",36.03472487,-86.78450363,BNABW,"Hilton Brentwood/Nashville Suites",36.032738,-86.780815,20.166693
99725291,"Hampton Inn Atlanta/Douglasville",33.731051297498,-84.740385649854,FWAFH,"Hampton Inn Atlanta/Douglasville-Arbor Place Mall",33.729739,-84.747206,25.288303
65383997,"Hampton Inn & Suites Newport Middletown",41.514154879762,-71.300803199893,MTNRI,"Hampton Inn & Suites Newport/Middletown",41.514106,-71.301476,25.865255
17852880,"Homewood Suites by Hilton Manchester/Airport",42.93650750148,-71.444671733084,MHTHW,"Homewood Suites by Hilton Manchester/Airport",42.928923,-71.450045,25.243553
66912720,"Embassy Suites by Hilton St. Louis St. Charles",38.769917,-90.502308,STLEM,"Embassy Suites by Hilton St. Louis St. Charles",38.770869,-90.50206,35.007393
83178706,"DoubleTree Breckenridge",39.475133597006,-106.05017244816,QKBVR,"DoubleTree by Hilton Breckenridge",39.475988,-106.049858,20.04625
81631451,"Hampton by Hilton Chengdu Longquanyi",30.56683234,104.24098177,CTULO,"Hilton Chengdu Longquanyi",30.58,104.180565,19.996143
16192822,"Homewood Suites by Hilton Shreveport",32.45351,-93.845661,SHVHW,"Homewood Suites by Hilton Shreveport",32.452802,-93.844359,24.77645
62054811,"DoubleTree by Hilton Hotel Bend",44.056887,-121.311453,RDMNB,"The Newberry Hotel Bend, Tapestry Collection by Hilton",44.0565,-121.3111,15.655684
16270731,"DoubleTree by Hilton Hotel Princeton",40.366401228649,-74.597449694729,PCTDT,"DoubleTree by Hilton Princeton",40.3664,-74.5972,21.185497
64293302,"Martinique New York on Broadway, Curio Collection by Hilton",40.748280960033,-73.987802014715,NYCCU,"Martinique New York on Broadway, Curio Collection by Hilton",40.748323,-73.987939,36.011417
78288317,"Canopy by Hilton Washington DC Bethesda North",39.05101345,-77.11661124,DCABN,"Canopy by Hilton Washington, DC - Bethesda North",39.0508,-77.116915,35.168877
11964055,"Hampton Inn Miami Beach - Mid Beach",25.81268082,-80.12331869,MIACA,"Hampton Inn Miami Beach - Mid Beach",25.812667,-80.123277,28.367748
41246411,"Hampton by Hilton Aachen Tivoli",50.78883927,6.09409571,AAHHX,"Hampton by Hilton Aachen Tivoli",50.789,6.094275,27.895792
14594480,"Home2 Suites by Hilton Chicago McCormick Place",41.85266071,-87.62305054,CHIMI,"Home2 Suites by Hilton Chicago McCormick Place",41.852713,-87.622825,30.305466
11313542,"Hilton Garden Inn Chicago McCormick Place",41.85267402,-87.62294292,CHIMK,"Hilton Garden Inn Chicago McCormick Place",41.852705,-87.622584,27.943861
43980640,"Chateau on the Park - Christchurch, a DoubleTree by Hilton",-43.526584049852,172.61137312853,CHCNZ,"Chateau on the Park, a Doubletree by Hilton hotel",-43.52648,172.611368,24.253075
65662113,"Hampton Inn Gatlinburg Historic Nature Trail",35.70407,-83.516807,GATNT,"Hampton Inn Gatlinburg Historic Nature Trail",35.704105,-83.516966,31.587772
49662560,"DoubleTree by Hilton York",53.963019677614,-1.077926158905,LBAYK,"DoubleTree by Hilton York",53.962817,-1.077318,21.361992
69365611,"Beach Village at The Del, Curio Collection by Hilton",32.681163866903,-117.17888636702,SANCN,"Beach Village at The Del, LXR Hotels & Resorts",32.680618,-117.177398,13.160362
31970102,"West Hotel Sydney, Curio Collection by Hilton",-33.86727115,151.20328851,SYDWH,"West Hotel Sydney - Curio Collection by Hilton",-33.867109,151.203274,26.640465
79951142,"Home2 Suites by Hilton Alpharetta",34.0742012,-84.2658142,ATLNQ,"Home2 Suites by Hilton Acworth",34.08043,-84.656765,16.355259
68343793,"Orbis Polan Zielona Gora",51.945903035941,15.520288498984,IEGZI,"Hampton by Hilton Zielona Gora",51.940394,15.492972,19.516434
38195597,"Home2 Suites By Hilton Toronto Brampton",43.68713717,-79.70891251,YYZAA,"Home2 Suites by Hilton Oakville Toronto ON",43.409946,-79.72753,20.976713
64306946,"Tru by Hilton St Louis Downtown",38.63112202,-90.19847445,STLHG,"Tru by Hilton Edwardsville",38.795752,-89.976695,12.576861
81500557,"WorldMark Zihuatanejo",17.63201550539,-101.56092857126,ZIHZI,"Hilton Grand Vacations Club Zihuatanejo Mexico",17.634602,-101.548428,14.27597
86737280,"Shore House at The Del",32.68065669,-117.17775887,SANRH,"Shore House at The Del, LXR Hotels & Resorts",32.680618,-117.177398,20.265568
61918902,"Deep Ellum Hostel",32.78485592,-96.78350992,DFWTT,"Tempo by Hilton Dallas Medical Center Deep Ellum",32.787,-96.788,21.23783
10093040,"Homewood Suites by Hilton Huntsville-Downtown",34.723328,-86.582841,MGMMC,"Tempo by Hilton Huntsville Midcity",34.737711,-86.664819,13.709848
69664924,"Sebastian Saltwater",27.8289088,-80.47425363,MLBSB,"Hampton Inn by Hilton Sebastian",27.801231,-80.460391,10.754616
27891986,"Mercure Istanbul Altunizade",41.024293,29.040995,ISTER,"Altunizade Suites Istanbul, Curio Collection by Hilton",41.025665,29.04389,20.385761
37679404,"DoubleTree by Hilton Hotel Toronto Downtown",43.65463,-79.386076,YYZDT,"Revery Toronto Downtown, Curio Collection by Hilton",43.647049,-79.392921,17.367607
82930946,"Home2 Suites by Hilton Yuma Pivot Point",32.72561074,-114.61920391,YUMFN,"Home2 Suites by Hilton Yuma Foothills",32.665926,-114.446034,20.61204
18268993,"Hampton Inn & Suites Amarillo East",35.19414849,-101.75374228,AMAAD,"Hampton Inn & Suites by Hilton Amarillo Downtown",35.203,-101.332,18.282944
35928386,"Hampton Inn Memphis-Poplar",35.108091,-89.884757,MEMPR,"Hampton Inn Memphis-Poplar",35.108231,-89.884804,25.288303
74454971,"7Days Inn Chengdu East Railway Station",30.6535,104.058,CTURS,"Hilton Garden Inn Chengdu East Railway Station",30.653535,104.146315,20.411806
16270731,"DoubleTree by Hilton Hotel Princeton",40.366401228649,-74.597449694729,PCTGP,"Graduate by Hilton Princeton",40.349474,-74.662823,15.123636
71852982,"The Nomad Hotel",51.5134882,-0.1219973,LONNM,"NoMad London",51.513702,-0.122652,9.152994
79527211,"Hinode Hills",42.84635493,140.68508526,CTSHH,"Hinode Hills Niseko Village",42.844443,140.675228,20.520044
36159346,"Tru by Hilton Yarmouth",43.83474918,-66.08580853,YSJNV,"Tru by Hilton Yarmouth",43.834539,-66.085591,25.121527
65870822,"Hilton Garden Inn Toronto/Oakville",43.503463,-79.668955,YYZAC,"Hampton Inn & Suites by Hilton Oakville Toronto ON",43.409946,-79.72753,22.39738
85198786,"The Vista at Hilton Tel Aviv",32.089310776388,34.770607043041,TLVVI,"The Vista at Hilton Tel Aviv",32.08889,34.770253,28.940895
60453335,"Foundry Hotel Asheville Curio Collection by Hilton",35.59358216,-82.54988168,AVLCU,"The Foundry Hotel Asheville, Curio Collection by Hilton",35.593429,-82.550036,31.269403
97887815,"C. Baldwin, Curio Collection by Hilton",29.757876560513,-95.370829355231,HOUCU,"C. Baldwin, Curio Collection by Hilton",29.757968,-95.371098,31.179905
40709142,"Hilton Cancun, an All-Inclusive Resort",20.95335425,-86.83605668,CUNQR,"Hilton Cancun, an All-Inclusive Resort",20.966711,-86.863937,30.054588
93405553,"Hilton Nordica",64.139688,-21.889091,KEFHF,"Hilton Reykjavik Nordica",64.1396,-21.8859,20.330563
87543517,"Lse Passfield Hall (Sgl Shared Facility)",51.52520418,-0.13073968,LXAAA,"SLH Test Facility",51.4938,-0.1269,7.950038
83326262,"Hotel Fraye Nashville Midtown, Curio Collection by Hilton",36.151538251584,-86.796292746033,BNAMO,"Hotel Fraye Nashville, Curio Collection by Hilton",36.15158,-86.796303,28.553154
80242502,"Homewood Suites By Hilton Santo Domingo",18.4713257,-69.94128945,SDQHW,"Homewood Suites by Hilton Santo Domingo",18.471362,-69.941237,27.566692
24718124,"Reykjavik Konsulat Hotel, Curio Collection by Hilton",64.14808314,-21.93780513,REKCU,"Reykjavik Consulate Hotel, Curio Collection by Hilton",64.148019,-21.937363,23.817139
21885826,"OYO Hotel Wytheville I-77 & I-81",36.9551,-81.0647,BKWAT,"Spark by Hilton Wytheville Holston Rd I 81",36.962132,-81.096365,19.2243
58857531,"Hampton Inn & Suites by Hilton Charlotte North I 485",35.34865032,-80.86296952,CLTVS,"Hampton Inn & Suites by Hilton York",34.992223,-81.243019,12.245903
,,,,OPCLA,"Opera Cloud Dev Facility PCRS",46.530369,24.544538,0
65730717,"Isla Brown Corinthia",37.931664686605,23.146438635676,ATHIB,"Isla Brown Corinthia Resort & Spa, Curio Collection by Hilton",37.931939,23.146205,28.699682
67478524,"Hampton Inn Lincoln Airport",40.84423862,-96.73647106,LNKOC,"Spark by Hilton Lincoln Airport",40.845451,-96.738062,12.799954
11119142,"Home2 Suites by Hilton Logansport",40.757255898489,-86.312819055225,OKKIE,"Home2 Suites by Hilton Kokomo",40.436421,-86.124961,16.310287
,,,,SASAA,"Signia Test 1",32.836137,-96.777955,0
14104240,"Hampton Inn Chicago McCormick Place",41.85267202,-87.62307765,CHIMC,"Hampton Inn Chicago McCormick Place",41.852701,-87.623121,27.384544
19173484,"Boeira Garden Hotel Porto Gaia, Curio Collection by Hilton",41.12792905,-8.61215354,OPOQQ,"Boeira Garden Hotel Porto Gaia, Curio Collection by Hilton",41.12798,-8.612567,33.55152
35928386,"Hampton Inn Memphis-Poplar",35.108091,-89.884757,AAABB,"Hampton Inn Memphis-Poplar",35.108231,-89.884804,25.288303
99725291,"Hampton Inn Atlanta/Douglasville",33.731051297498,-84.740385649854,ATBBB,"Hampton Inn Atlanta/Douglasville-Arbor Place Mall",33.729739,-84.747206,25.288303
79951142,"Home2 Suites by Hilton Alpharetta",34.0742012,-84.2658142,ATLNA,"Home2 Suites by Hilton Acworth",34.08043,-84.656765,16.355259
67658466,"Tru By Hilton Wytheville",36.96573705,-81.07405849,XXXXX,"Spark by Hilton Wytheville Holston Rd",36.962132,-81.096365,17.636461
67658466,"Tru By Hilton Wytheville",36.96573705,-81.07405849,XCCDD,"Spark by Hilton Wytheville Holston Rd",36.962132,-81.096365,17.636461
79951142,"Home2 Suites by Hilton Alpharetta",34.0742012,-84.2658142,ATBBA,"Home2 Suites by Hilton Acworth",34.08043,-84.656765,16.355259
67658466,"Tru By Hilton Wytheville",36.96573705,-81.07405849,XSSDD,"Spark by Hilton Wytheville Holston Rd",36.962132,-81.096365,17.636461
36159346,"Tru by Hilton Yarmouth",43.83474918,-66.08580853,YSJAA,"Tru by Hilton Yarmouth",43.834539,-66.085591,25.121527
,,,,CCSSH,Unknown,0,0,0
67658466,"Tru By Hilton Wytheville",36.96573705,-81.07405849,XSAFG,"Spark by Hilton Wytheville Holston Rd",36.962132,-81.096365,17.636461
,,,,SSGGD,Unknown,0,0,0
56755760,"Hilton Suites Makkah",21.421328192219,39.821591856136,MAKES,"Embassy Suites by Hilton Makkah KAAR",21.325956,39.946046,19.645142
88078022,"Hilton Garden Inn Austin University Capitol District",30.27940886,-97.74147702,AUSAU,"Hilton Garden Inn Austin University Capitol District",30.279449,-97.741508,29.895378
43510055,"WoodSpring Suites Austin South Central I-35",30.20643884,-97.75673274,AUSLE,"Home2 Suites by Hilton Austin South I-35",30.167866,-97.787693,22.246143
51570237,"Candlewood Suites Huntersville-Lake Norman",35.4405965,-80.87276675,CLTBD,"Hilton Garden Inn Huntersville Lake Norman",35.441272,-80.84894,22.201674
89800077,"Hilton Garden Inn Moncton Downtown",46.08765079,-64.78504172,YQMCA,"Hilton Garden Inn Moncton Downtown",46.087651,-64.785373,24.79726
46783382,"Hampton Inn Gretna - Altavista - Chatham",36.95196582113,-79.377607034313,LYHGR,"Hampton Inn by Hilton Gretna",36.951971,-79.377545,16.621155
20096080,"Hilton Garden Inn Al Khobar",26.30695436,50.17555331,DMMPY,"Canopy by Hilton Al Khobar the Avenues",26.333129,50.175066,16.968075
84854033,"DoubleTree by Hilton Dubai M square Hotel & Residences",25.2504683,55.30089225,DXBMK,"DoubleTree by Hilton Dubai M Square Hotel & Residences",25.250342,55.301012,28.125193
23250295,"Port Charlotte Homes",26.8503433,-82.2942613,PGDPC,"Home2 Suites by Hilton Port Charlotte",27.022026,-82.045965,15.59587
37266993,"Hilton Garden Inn Austin North",30.402198418825,-97.675520856414,AUSCN,"Hilton Garden Inn Austin Central",30.338273,-97.697001,17.683313
42110717,"Hilton Garden Inn Madison Downtown",43.068332249543,-89.398311726984,MSNMU,"Hilton Garden Inn Madison Downtown",43.068232,-89.398353,22.810846
61069760,"Hilton Garden Inn Chengdu Huayang",30.52446966,104.04034682,CTUCE,"Hilton Garden Inn Chengdu East",30.672516,104.13627,16.511984
28379051,"Doubletree By Hilton Guangzhou",23.131439935657,113.27117218813,CANPZ,"Canopy by Hilton Guangzhou Pazhou",23.099488,113.34194,14.0518055
41918844,"DoubleTree by Hilton Moscow Arbat",55.75492607,37.60088195,MOWAR,"DoubleTree by Hilton Moscow Arbat",55.75493,37.600804,28.431948
99533120,"Hampton Inn Wabash",40.81845216,-85.84098672,LAFUS,"Hampton Inn by Hilton Wabash",40.81874,-85.841328,20.972076
40564284,"Hilton Zhengzhou",34.763620926424,113.70694354558,CGODI,"DoubleTree by Hilton Zhengzhou East",34.769398,113.792188,16.07597
80729771,"Tru By Hilton Raleigh Durham Airport",35.86573872,-78.81522655,RDURP,"Tru by Hilton Durham RTP",35.879796,-78.849152,19.474297
69606502,"Home2 Suites by Hilton Hanford Lemoore",36.31994037,-119.67083328,FATHN,"Hampton Inn by Hilton Hanford",36.316521,-119.671623,15.277489
70979404,"Homewood Suites by Hilton Hartford / Windsor Locks",41.91893400496,-72.671509093357,HFDRW,"Home2 Suites by Hilton Windsor Hartford North",41.875071,-72.665976,20.39461
30099931,"DoubleTree by Hilton Nanning Wuxiang",22.75574102,108.39019086,NNGJC,"DoubleTree by Hilton Nanning Wuxiang",22.75574,108.390189,28.909435
31886604,"StayOvr at Craig Ranch McKinney",33.201,-96.6354,DFWCR,"Hilton Garden Inn McKinney Craig Ranch",33.137035,-96.708313,22.831978
73821175,"Hampton Inn & Suites Huntsville",30.7109624,-95.5673401,IAHHT,"Home2 Suites by Hilton Huntsville",30.71088,-95.569409,12.395233
78647462,"DoubleTree by Hilton Denver International Airport",39.822464877908,-104.77131964418,DENAA,"DoubleTree by Hilton Denver International Airport",39.822694,-104.771149,25.834652
39424855,"Cumberland House Knoxville, Tapestry Collection by Hilton",35.960454571364,-83.92574475,TYSCH,"Cumberland House Knoxville Tapestry Collection by Hilton",35.960534,-83.925763,31.079786
89297371,"Bracebridge Inn",45.043086428069,-79.313890264088,YQARA,"Tru by Hilton Bracebridge, ON",45.049787,-79.296482,13.670522
43510055,"WoodSpring Suites Austin South Central I-35",30.20643884,-97.75673274,AUSSU,"Homewood Suites by Hilton Austin Central I-35",30.320771,-97.706026,22.297922
14826284,"DoubleTree by Hilton Tucson Downtown Convention Center",32.2178521,-110.97340414,TUSAU,"DoubleTree by Hilton Tucson Downtown Convention Center",32.218102,-110.973927,30.038925
57364022,"Home2 Suites by Hilton West Sacramento",38.58223487,-121.52161115,SACUS,"Home2 Suites by Hilton West Sacramento",38.582241,-121.521627,25.84528
16233677,"Tru By Hilton Manassa",38.74006126,-77.51215435,MNZGW,"Tru by Hilton Manassas",38.74,-77.512219,15.722416
62431760,"Waldorf Astoria Atlanta Buckhead",33.849400006768,-84.366479713134,ATLWA,"Waldorf Astoria Atlanta Buckhead",33.849075,-84.366285,32.696404
45748182,"Baymont by Wyndham Branford/New Haven",41.296279,-72.766291,HVNCT,"Hampton Inn by Hilton Branford New Haven",41.29889,-72.772439,20.665777
37641600,"DoubleTree by Hilton La Torre Golf & Spa Resort",37.823577876024,-1.000772416592,MJVLT,"DoubleTree by Hilton La Torre Golf & Spa Resort",37.82376,-1.000195,25.925186
68472400,"Hilton Garden Inn Toronto/Mississauga",43.623914,-79.672187,YYZMU,"Hilton Garden Inn Mississauga",43.5454,-79.7271,19.42716
54961117,"Hilton Garden Inn Paris La Villette",48.89623203,2.3830618,ORYGI,"Hilton Garden Inn Paris La Villette",48.8963,2.383245,24.887136
80044284,"Hilton Garden Inn Santa Ana San Jose",9.93614365,-84.18902162,SJOAC,"Hilton Garden Inn San Jose Airport City Mall",10.004789,-84.210406,18.011864
15309782,"Home2 Suites by Hilton Hayward",37.65980703,-122.11522024,SJCSN,"Home2 Suites by Hilton Sunnyvale",37.409272,-121.995203,16.355259
99600422,"DoubleTree by Hilton Xian Fengdong",34.24087815,108.80541158,XIYER,"DoubleTree by Hilton Xi'an Fengdong",34.240873,108.805365,22.904907
33525120,"Hilton Dubai Al Habtoor City",25.184391249537,55.255236119049,DXBAH,"Hilton Dubai Al Habtoor City",25.184494,55.255329,29.179327
84930331,"Homewood Suites by Hilton Tuscaloosa Downtown",33.21200538,-87.57108033,TCLUA,"Homewood Suites by Hilton Tuscaloosa Downtown",33.212082,-87.570922,27.33905
82515440,"Homewood Suites by Hilton Myrtle Beach Coastal Grand Mall",33.69873253,-78.92721428,MYRGM,"Homewood Suites by Hilton Myrtle Beach Coastal Grand Mall",33.698686,-78.927062,31.362633
34399680,"Hampton by Hilton London City",51.516566,-0.069878,LONAR,"Hampton by Hilton London City",51.516706,-0.069734,21.67973
88594764,"V Hotel Dubai, Curio Collection by Hilton",25.184444313168,55.254405095015,DXBVH,"V Hotel Dubai, Curio Collection by Hilton",25.184431,55.254528,27.660818
59820775,"Azores Pópulo",37.7494,-25.6651,PDLLA,"DoubleTree by Hilton Lagoa Azores",37.749644,-25.580032,12.732404
60095277,"Wailuku Guesthouse",20.885683,-156.500962,OGGWM,"Hilton Garden Inn Maui Wailuku",20.88796,-156.501425,13.671433
24938557,"Hilton Fort Lauderdale Airport",26.063527047242,-80.162980868717,FLLFD,"Embassy Suites by Hilton Fort Lauderdale Airport South",26.057386,-80.14446,24.365852
78078993,"Estero Sands",26.44612584,-81.93785749,RSWES,"Hilton Garden Inn Estero",26.412375,-81.810952,13.274389
53501920,"Busselton Backpackers",-33.6536348,115.34375822,BQBGI,"Hilton Garden Inn Busselton",-33.64561,115.34594,13.671433
14412880,"Tenerife Tour",28.37479,-16.362481,TCIWA,"Waldorf Astoria Tenerife",28.222583,-16.835318,11.513725
62422237,"Chekhoff Hotel Moscow Curio Collection by Hilton",55.768857622263,37.605353593826,MOWCH,"Chekhoff Hotel Moscow, Curio Collection by Hilton",55.768919,37.605488,30.988308
23508317,"Tru By Hilton Greensboro, Nc",36.05269579,-79.88884012,GSOGN,"Tru by Hilton Greensboro",36.052634,-79.888741,21.937561
58333677,"Conrad Urumqi",43.827567,87.59579,URCCI,"Conrad Urumqi",43.821358,87.589383,21.850998
12842491,"Ahiska Palas Kars",40.6045,43.0948,KSYTR,"Hampton by Hilton Kars",40.607766,43.099956,11.532436
67036375,"Hilton Guangzhou Science City",23.172298985668,113.45141025264,CANNI,"Hilton Guangzhou Science City",23.178211,113.457546,24.015081
73941324,"Marjan Island Resort & Spa",25.682280024898,55.746415,RKTCI,"Conrad Marjan Island",25.681127,55.745197,15.006247
51803382,"Hilton Garden Inn Florence Cincinnati Airport South",39.01241446936,-84.636822388361,CVGKE,"Hilton Garden Inn Florence Cincinnati Airport South",39.012763,-84.636602,28.089975
70356400,"Hilton Garden Inn Erzurum",39.9150769,41.2527342,ERZYK,"Hilton Garden Inn Erzurum",39.915928,41.250297,22.71856
42742237,"Hop Inn Cooperstown",42.74661137,-74.86947238,BGMHR,"Hampton Inn by Hilton Cooperstown",42.659166,-74.957038,14.736025
61069760,"Hilton Garden Inn Chengdu Huayang",30.52446966,104.04034682,CTUNE,"Hilton Garden Inn Chengdu Xinglong Lake",30.573919,104.06505,16.511984
69757920,"Hilton Grand Vacations Club The Crane Barbados",13.105941595668,-59.445183037583,BGICR,"Hilton Grand Vacations Club The Crane Barbados",13.105623,-59.446055,31.620895
66677313,"Hampton Inn Tucson Downtown",32.21978812,-110.97063465,TUSCB,"Hampton Inn by Hilton Tucson Downtown",32.21941,-110.97057,22.411211
87899884,"Hampton by Hilton Blackburn",53.75413448,-2.44194812,MANUB,"Hampton by Hilton Blackburn",53.754187,-2.441754,23.136463
20104113,"Hampton Inn North Attleboro",41.95217275,-71.34329425,BOSDA,"Hampton Inn & Suites by Hilton North Attleboro",41.952274,-71.343183,24.00451
54074844,"Hilton Garden Inn Bristol City Centre",51.451513114849,-2.585118412972,BRSAA,"Hilton Garden Inn Bristol Ashton Gate Stadium",51.438974,-2.621783,15.999193
51072877,"Homewood Suites by Hilton Ann Arbor",42.25127532,-83.7388624,DTWAR,"Home2 Suites by Hilton Ann Arbor South",42.24307,-83.75286,22.457355
79079597,"Schaffhausen Youth Hostel",47.7019118,8.6225503,ZRHSH,"Hampton by Hilton Schaffhausen",47.716999,8.665668,11.878011
26045964,"TownePlace Suites Big Spring",32.26129312,-101.4903392,HCABS,"Home2 Suites by Hilton Big Spring",32.261759,-101.491501,16.254997
82655597,"Hilton Garden Inn Tifton",31.446266,-83.534762,ABYTF,"Home2 Suites by Hilton Tifton",31.449509,-83.536524,15.284945
68614742,"The Fellows House Cambridge, Curio Collection by Hilton",52.21628219,0.1257725,STNCA,"The Fellows House Cambridge, Curio Collection by Hilton",52.216507,0.125895,31.44458
54465564,"Hilton Garden Inn Faroe Islands",62.02195957,-6.76867328,FAETH,"Hilton Garden Inn Faroe Islands",62.021993,-6.768901,28.209719
64788971,"Hilton Kinshasa",-4.29847823,15.31211194,FIHCD,"Hilton Garden Inn Kinshasa",-4.3103,15.2736,20.292217
27551986,"Home2 Suites by Hilton Jackson",35.67602439,-88.80513943,MEMJA,"Home2 Suites by Hilton Jackson",35.676033,-88.805149,23.094961
41824400,"Hilton Melbourne Beach Oceanfront",28.133912,-80.579382,MLBCD,"Tru by Hilton Melbourne",28.078094,-80.693397,12.773126
96321931,"Hilton Garden Inn Nashville Brentwood",36.02931854,-86.78813757,BNAPK,"Hampton Inn & Suites by Hilton Brentwood Nashville",36.039236,-86.784414,21.864105
25281186,"Courtyard St. Augustine I-95",29.9139,-81.39858,USTRU,"Tru by Hilton St. Augustine I-95",29.906054,-81.505021,25.525373
81800615,"Home2 Suites by Hilton Nashville-Airport",36.14337,-86.660303,BNAPL,"Home2 Suites by Hilton Brentwood Nashville",36.039082,-86.78439,21.124348
96428913,"Hilton Garden Inn Kampala",0.33758638,32.58392592,EBBKA,"Hilton Kampala",0.329762,32.581058,14.378192
18883575,"Hilton Garden Inn Chandler Downtown",33.30156249,-111.84173416,PHXAZ,"Hilton Garden Inn Chandler Downtown",33.301649,-111.841528,24.253355
78340535,"Home2 Suites by Hilton Anderson Downtown",34.50163551,-82.64954363,ANDRN,"Home2 Suites by Hilton Anderson Downtown",34.501653,-82.649515,26.775805
76000571,"Hilton Garden Inn Snowdonia",53.19090436,-3.84102363,VLYMS,"Hilton Garden Inn Snowdonia",53.190891,-3.841032,23.139233
11987335,"Hampton Inn & Suites Muncie",40.22029431282,-85.43527803638,MIENW,"Home2 Suites by Hilton Muncie",40.221444,-85.437563,13.378697
83001815,"Al Azhar Jeddah",21.494895,39.185633,JEDSA,"Hilton Garden Inn Jeddah Al Nuzhah",21.629567,39.162164,14.666544
67642786,"Hampton Inn Suites Cincinnati West",39.18853015,-84.65383139,LUKBS,"Hampton Inn  Suites by Hilton Cincinnati West",39.188534,-84.65385,22.114616
63931084,"Hilton Hiroshima",34.38641244,132.46241486,HIJSH,"Hilton Hiroshima",34.38637,132.46195,17.44816
83241062,"Hilton Club The Quin New York",40.764600121107,-73.977357745171,NYCCP,"Hilton Club The Quin New York",40.764712,-73.977382,29.28944
63985931,"Home2 Suites by Hilton St Louis Downtown",38.63095855,-90.19821138,STLCS,"Home2 Suites by Hilton St. Louis Downtown",38.630931,-90.198214,27.333878
23427735,"Home2 Suites by Hilton Kenner New Orleans Airport",30.00675826,-90.25368995,MSYKE,"Home2 Suites by Hilton Kenner New Orleans Airport",30.00676,-90.253561,31.78627
64306946,"Tru by Hilton St Louis Downtown",38.63112202,-90.19847445,STLOC,"Tru by Hilton St. Louis Downtown",38.631124,-90.198536,27.768288
10562731,"Hilton Molino Stucky Venice",45.428265316034,12.319992184639,VCEPY,"Canopy by Hilton Venice City Centre",45.443884,12.318778,12.612366
32036797,"Home2 Suites by Hilton Atlanta Norcross",33.9537696,-84.2220354,ATLCO,"Home2 Suites by Hilton Atlanta Galleria",33.884771,-84.459085,20.508055
22180077,"Jamaica Bay Inn Tapestry Collection by Hilton",33.982566667773,-118.45795333386,LAXMI,"Jamaica Bay Inn Marina Del Rey, Tapestry Collection by Hilton",33.982735,-118.457728,28.40237
64712946,"Hilton Garden Inn Atlanta - Buckhead",33.84741585759,-84.369906090043,ATLCG,"Hilton Garden Inn Atlanta Galleria",33.884771,-84.459213,17.21948
46672877,"Hilton Garden Inn Sunnyvale",37.39477419,-122.02973844,OAKDB,"Hilton Garden Inn Dublin",37.703857,-121.860971,12.213599
22681724,"Hampton Inn & Suites Dublin",32.48713044,-82.93982727,MCNTC,"Home2 Suites by Hilton Dublin",32.487417,-82.941727,12.010325
44094044,"RUSHHH Daytona Beach, Tapestry Collection by Hilton",29.191364,-80.990229,DABTP,"Daytona Beach, Tapestry Collection by Hilton",29.238942,-81.013377,25.759048
83077757,"Ginger Pune Wakad",18.60670801127,73.75241522576,PNQPJ,"DoubleTree by Hilton Pune Hinjwadi Wakad",18.601,73.747,22.466957
57629051,"Home2 Suites by Hilton Sarasota I-75 Bee Ridge",27.30155728,-82.44159037,SRQBR,"Home2 Suites by Hilton Sarasota I-75 Bee Ridge",27.301764,-82.4415,35.34201
27550844,"Hampton Inn Delray Beach",26.465611,-80.068579,PBIDL,"Hampton Inn by Hilton Delray Beach",26.465622,-80.068573,21.708109
73796993,"DoubleTree by Hilton Austin, MN",43.6786,-92.9853,AUMTI,"DoubleTree by Hilton Austin",43.682393,-92.981144,19.745802
19986695,"St. James Hotel Selma, Tapestry Collection by Hilton",32.4069,-87.0171,SEMAL,"St. James Hotel Selma, Tapestry Collection by Hilton",32.406905,-87.017677,31.223368
68241291,"Home2 Suites By Hilton Odessa",31.90507223,-102.30243551,MAFNE,"Home2 Suites by Hilton Odessa",31.911468,-102.295811,23.97332
72252317,"Hampton by Hilton Quito La Carolina Park",-0.18228081,-78.47716894,UIOCM,"Hampton by Hilton Quito La Carolina Park",-0.182157,-78.477173,27.949984
77973997,"Inn of the Hills Resort and Conference Center",30.057495,-99.164334,SATSH,"Seven Hills Hotel & Conference Center, Curio Collection by Hilton",30.285452,-98.887017,11.819892
31156331,"Projoy Hotel Tianfu Chengdu",30.52828686,104.06604886,CTUTF,"Curio Collection by Hilton Chengdu Tianfu New Area",30.495631,104.067017,15.249802
91341026,"Hilton Garden Inn Trinidad Downtown",37.17341959,-104.50647221,ALSTD,"Hilton Garden Inn Trinidad Downtown",37.173478,-104.506515,23.381111
21439222,"BlackBrick Cape Town",-33.92051505,18.42349264,CPTLO,"Canopy by Hilton Cape Town Longkloof",-33.928114,18.410538,14.631508
14718571,"Home2 Suites by Hilton Tucson Downtown",32.21982628,-110.97047121,TUSCA,"Home2 Suites by Hilton Tucson Downtown",32.21977,-110.97069,26.550617
45320284,"Hampton Inn & Suites Myrtle Beach Oceanfront",33.671611250793,-78.903181379894,MYRCG,"Hampton Inn & Suites by Hilton North Myrtle Beach Oceanfront Cherry Grove",33.830323,-78.633472,25.645622
61149280,"Homewood Suites by Hilton Greenville Downtown",34.84348053,-82.40897197,GSPER,"Tempo by Hilton Greenville Downtown",34.845091,-82.406105,17.593327
27842535,"DoubleTree by Hilton Columbus Dublin",40.096036827331,-83.1333197,DUBCD,"Doubletree by Hilton Columbus Dublin",40.096349,-83.133222,26.914358
86588295,"Hampton by Hilton Ganzhou Zhangjiang New Area",25.82040837,114.94023724,KOWGZ,"DoubleTree by Hilton Ganzhou Zhangjiang",25.812778,114.909151,19.362577
65259920,"Doubletree By Hilton Putrajaya Lakeside",2.90015898,101.66962693,KULPR,"DoubleTree by Hilton Putrajaya Lakeside",2.900371,101.669599,27.930618
38195597,"Home2 Suites By Hilton Toronto Brampton",43.68713717,-79.70891251,YYZAT,"Home2 Suites by Hilton Toronto Airport ON",43.68679,-79.60382,20.976713
32238364,"Hampton Inn by Hilton Winnipeg Downtown",49.888995,-97.141725,YWGWG,"Hampton Inn by Hilton Winnipeg Downtown",49.88881,-97.14181,25.269602
64712946,"Hilton Garden Inn Atlanta - Buckhead",33.84741585759,-84.369906090043,ATLOP,"Hilton Garden Inn Atlanta Clairmont",33.847099,-84.314741,17.21948
64629997,"Tru by Hilton Franklin Cool Springs Nashville",35.92339668,-86.81226897,BNATN,"Tru by Hilton Franklin Cool Springs Nashville",35.922891,-86.812691,34.315517
46173440,"DoubleTree by Hilton Stoke on Trent",53.0266,-2.195514,MANDI,"DoubleTree by Hilton Stoke on Trent",53.026589,-2.195619,31.393486
43996011,"Holiday Inn Express & Suites Carlisle Southwest – I-81",40.18358931,-77.23625131,MDTCS,"Hampton Inn  & Suites by Hilton Carlisle South I-81",40.185048,-77.211669,19.79033
35615906,"DoubleTree by Hilton Pointe Claire Montreal Airport West",45.462275,-73.826758,YULAN,"DoubleTree by Hilton Pointe Claire Montreal Airport West",45.4621,-73.827005,33.511868
81128924,"Home2 Suites by Hilton Amarillo East",35.19379512,-101.7534081,AMACL,"Home2 Suites by Hilton Amarillo East",35.19338,-101.752982,26.079037
11086240,"Home2 Suites by Hilton Fishers Indianapolis Northeast",39.92901549,-86.02560894,INDFE,"Home2 Suites by Hilton Fishers Indianapolis Northeast",39.928988,-86.025694,32.471386
73127051,"Comfort Inn & Suites Rocklin - Roseville",38.787421808523,-121.22599179299,SMFRK,"Hampton Inn & Suites by Hilton Rocklin",38.806249,-121.207189,14.74691
24614375,"Tru by Hilton Thornburg",38.13203103,-77.5083833,RICTH,"Tru by Hilton Thornburg",38.131809,-77.5083,26.700409
74255840,"Home2 Suites by Hilton Saginaw",43.48470962,-83.96665803,MBSMD,"Home2 Suites by Hilton Midland",43.661004,-84.235239,16.31438
14779357,"Hilton Garden Inn Albany",-35.02970684,117.88674711,ALHGI,"Hilton Garden Inn Albany",-35.029614,117.886858,20.235052
46517313,"Hampton by Hilton Bialystok",53.1330581,23.14921709,WMIBI,"Hampton by Hilton Bialystok",53.133011,23.149136,23.813934
37653084,"Hampton by Hilton Munich City North",48.18988961,11.58556462,MUCIS,"Hampton by Hilton Munich City North",48.189885,11.585605,25.731415
26033346,"Hampton Inn by Hilton Detroit Dearborn",42.30498729,-83.25031658,DTWEA,"Hampton Inn by Hilton Woodhaven",42.141836,-83.294,12.915816
48007597,"Travelodge by Wyndham Gananoque",44.338294,-76.146055,YGKCA,"Tru by Hilton Gananoque, ON",44.340032,-76.139133,13.709908
26888637,"Hampton Inn Norco Corona Eastvale",33.90382325,-117.5624115,ONTNO,"Tru by Hilton Norco Eastvale",33.93248,-117.55764,19.23236
89034535,"Home2 Suites by Hilton Omaha I-80 at 72nd Street",41.22868757,-96.02246154,OMAGA,"Home2 Suites by Hilton Omaha I-80 at 72nd Street",41.228499,-96.023165,36.43363
38188866,"Tru by Hilton Omaha I-80 at 72nd Street",41.22885256,-96.02175383,OMASS,"Tru by Hilton Omaha I-80 at 72nd Street",41.228946,-96.023662,37.783432
21880491,"Hilton Sukhumvit Bangkok",13.728377,100.569298,BKKTH,"Canopy by Hilton Bangkok Sukhumvit",13.736339,100.557998,22.089527
43704971,"Home2 Suites By Hilton Duncan",34.91246796,-82.10351365,GSPYU,"Home2 Suites by Hilton Simpsonville",34.710671,-82.255857,16.246153
96954640,"Al Muhaidb Residence Abha",18.20597051,42.49198011,AHBMR,"DoubleTree by Hilton Abha Al Mahalah",18.241742,42.604275,14.580099
35432833,"Home2 Suites by Hilton Birmingham Downtown",33.50877712,-86.8064103,BHMAL,"Home2 Suites by Hilton Alabaster Birmingham",33.232579,-86.799364,21.132587
14457382,"Motel 6 Kerrville",30.064856,-99.122549,ERVTX,"Tru by Hilton Kerrville",30.066848,-99.117567,12.405835
77613920,"DoubleTree by Hilton Bogotá Salitre AR",4.626248,-74.117142,BOGDT,"DoubleTree by Hilton Bogota Salitre ar",4.6419,-74.105018,26.884277
36790182,"Hilton Garden Inn Changde Dingcheng",28.99698048,111.68124459,CGDWL,"Hilton Garden Inn Changde Dingcheng",28.996941,111.681278,28.424347
26283106,"Home2 Suites by Hilton Bakersfield",35.36825841,-119.09354661,BFLRH,"Tru by Hilton Bakersfield",35.382002,-119.051416,15.2794075
44704433,"Courtyard Toluca Tollocan",19.2873489,-99.62149686,TLCTT,"Hilton Garden Inn Toluca Tollocan",19.286263,-99.581056,23.477
76570171,"Hampton Inn by Hilton Nuevo Vallarta",20.70052633,-105.27250028,PVRNV,"Hampton by Hilton Nuevo Vallarta",20.700556,-105.2725,24.312614
25472171,"The Westley Calgary Downtown Tapestry Collection by Hilton",51.04995601,-114.07499638,YYCDA,"The Westley Calgary Downtown, Tapestry Collection by Hilton",51.049809,-114.075221,33.813663
50033826,"Waldorf Astoria Los Cabos Pedregal",22.875905,-109.911476,SJDWA,"Waldorf Astoria Los Cabos Pedregal",22.874364,-109.912086,35.773594
31759357,"Tru by Hilton Naperville Chicago",41.80117689,-88.20800068,CHIME,"Tru by Hilton Naperville Chicago",41.801909,-88.20714,29.181713
70972560,"Tru by Hilton Gaylord",45.02822263,-84.69197571,TVCGL,"Tru by Hilton Gaylord",45.028326,-84.69201,25.509705
89346993,"Comfort Suites Vacaville",38.371299013125,-121.95127421359,SMFVA,"Home2 Suites by Hilton Vacaville",38.387682,-121.948707,16.276089
49694764,"Motto by Hilton Washington DC City Center",38.90007825,-77.02116547,WASUA,"Motto by Hilton Washington DC City Center",38.89997,-77.021179,31.782314
68089371,"Tru By Hilton West Memphis",35.15937973,-90.16292777,MEMRU,"Tru by Hilton Southaven Memphis",34.963117,-89.996312,21.238796
75641975,"Homewood Suites by Hilton Fresno",36.836394,-119.777558,FATTH,"Tru by Hilton Fresno",36.80902,-119.770528,15.060999
45931211,"Zemi Beach House Resort & Spa",18.25162574,-63.03667608,AXAZB,"Zemi Beach House, LXR Hotels & Resorts",18.251534,-63.036733,15.904884
52684582,"MS Milenium",25.653579807045,-100.33911645412,MTYMM,"MS Milenium Monterrey, Curio Collection by Hilton",25.653748,-100.339065,22.306808
79086113,"Tru by Hilton Lathrop",37.81239386,-121.29270437,MODRA,"Home2 Suites by Hilton Lathrop",37.812325,-121.29852,17.804478
36828913,"Hilton Grand Vacations Club Chicago Magnificent Mile",41.892787643637,-87.619724159759,CHIGV,"Hilton Grand Vacations Club Chicago Magnificent Mile",41.892882,-87.619611,33.951443
16868640,"Home2 Suites by Hilton Raynham Taunton",41.90460187,-71.0300508,PVDTN,"DoubleTree by Hilton Taunton",41.961183,-71.127595,14.467339
98822560,"Hampton Inn By Hilton Cornwall",45.03191071,-74.77062837,YCCCA,"Hampton Inn by Hilton Cornwall",45.031913,-74.770626,22.752285
43547426,"Yichun Mont Aqua Resort",28.949288189366,115.19701089918,KHNLS,"Lushan West Sea Resort, Curio Collection by Hilton",29.306289,115.280881,3.1150117
92401564,"Travel City at Hoboken Waterfront",40.753235676113,-74.023397071776,EWRHB,"Hilton Hoboken Waterfront",40.736688,-74.028023,16.185558
41816193,"Canvas Moncton, Tapestry Collection by Hilton",46.0906407,-64.7747145,YQMMO,"Canvas Moncton, Tapestry Collection by Hilton",46.090592,-64.774636,33.018436
89749371,"Tru by Hilton Monroe",39.44137928,-84.32946727,CVGJP,"Tru by Hilton Monroe OH",39.441338,-84.328351,24.222157
98875942,"Homewood Suites By Hilton Savannah Historic District",32.079003517946,-81.083119245508,SAVAN,"Canopy by Hilton Savannah Historic District",32.08226,-81.094619,21.760687
76107506,"DoubleTree by Hilton Madison East",43.127905999761,-89.30980924475,MSNMD,"Home2 Suites by Hilton Madison East",43.13069,-89.29597,18.801962
98875942,"Homewood Suites By Hilton Savannah Historic District",32.079003517946,-81.083119245508,SAVDC,"Home2 Suites by Hilton Savannah Historic District",32.080556,-81.098064,24.30122
43587451,"Tru by Hilton Madison West",43.05536766,-89.52096889,MSNME,"Tru by Hilton Madison East",43.13069,-89.29597,20.929745
98875942,"Homewood Suites By Hilton Savannah Historic District",32.079003517946,-81.083119245508,SAVDL,"Motto by Hilton Savannah Historic District",32.080583,-81.098193,21.760687
67702717,"DoubleTree by Hilton Dothan",31.210985,-85.427393,DHNAL,"Doubletree by Hilton Dothan",31.211421,-85.426313,24.205757
30782397,"Spat Hotel Ashdod",31.80152619,34.656587,TLVSB,"Swell Beach Hotel Ashdod, Curio collection by Hilton",31.805605,34.643017,13.921305
63795906,"Homewood Suites by Hilton Orlando Airport",28.458529706753,-81.311667235323,ISMDL,"Homewood Suites by Hilton Celebration Orlando",28.317505,-81.55624,20.707598
56988877,"Canopy by Hilton Chicago Central Loop",41.87842761,-87.63493754,CHIJB,"Canopy by Hilton Chicago Central Loop",41.878423,-87.63488,31.220839
36159346,"Tru by Hilton Yarmouth",43.83474918,-66.08580853,YSBBB,"Tru by Hilton Yarmouth",43.834539,-66.085591,25.121527
37792124,"Hilton Garden Inn Chicago Central Loop",41.87858968,-87.63498782,CHIWJ,"Hilton Garden Inn Chicago Central Loop",41.878433,-87.634947,27.396729
49503964,"Home2 Suites by Hilton Wilmington Wrightsville Beach",34.24686334,-77.8652033,ILMMP,"Home2 Suites by Hilton Wilmington Medical Park Downtown",34.179717,-77.919359,19.834267
27862055,"Tru by Hilton Toronto Airport West",43.673974120707,-79.671973920901,YTOPC,"Tru by Hilton Toronto Airport West",43.674187,-79.671727,27.156536
31080535,"Hampton Inn Perry",32.468545,-83.744249,MCNUS,"Hampton Inn by Hilton Perry",32.468836,-83.743996,19.376024
29747451,"Home2 Suites by Hilton Bryant Little Rock",34.61935677,-92.50011945,FRNAR,"Home2 Suites by Hilton Bryant Little Rock",34.619335,-92.499772,29.716806
97562320,"DoubleTree by Hilton London Elstree",51.657013140154,-0.250352025032,LONLE,"DoubleTree by Hilton London Elstree",51.657037,-0.250429,28.060442
93048717,"Home2 Suites by Hilton Ogden",41.22214022,-111.97727915,OGDEN,"Home2 Suites by Hilton Ogden",41.221914,-111.977801,24.768213
18405266,"DoubleTree By Hilton A Coruña",43.37410543,-8.40044087,LCGAC,"DoubleTree by Hilton A Coruna",43.374108,-8.400434,17.597874
39673746,"Home2 Suites By Hilton Colorado Springs South",38.79279486,-104.80485212,COSRX,"Home2 Suites by Hilton Colorado Springs North",38.989957,-104.795009,24.279465
96503622,"Tru by Hilton Ogden",41.22238659,-111.97666278,OGDRU,"Tru by Hilton Ogden",41.222557,-111.980924,25.157795
35322353,"Homewood Suites by Hilton Chicago Downtown",41.891795459085,-87.626304030418,ORDSD,"Homewood Suites by Hilton Skokie Downtown Chicago",42.026615,-87.751433,25.396887
71844204,"Homewood Suites by Hilton Colorado Springs-North",38.965578,-104.792198,COSRQ,"Tru by Hilton Colorado Springs North",38.990932,-104.795956,20.464796
25494593,"DoubleTree by Hilton Ankara Incek",39.83261928,32.7187272,ANKCK,"DoubleTree by Hilton Ankara Incek",39.832653,32.718792,30.528372
11230800,"Hilton Garden Inn Asuncion Aviadores del Chaco",-25.28201648,-57.56292705,ASUPY,"Hilton Garden Inn Asuncion Aviadores del Chaco",-25.282012,-57.562653,35.339752
52036891,"Hilton Garden Inn Visalia",36.3273,-119.331,VISAP,"Hilton Garden Inn Visalia",36.328516,-119.388658,22.63696
86844400,"Tru by Hilton Clearfield Hill Air Force Base",41.12287681,-112.02051934,SLCCF,"Tru by Hilton Clearfield Hill Air Force Base",41.122944,-112.020642,37.786266
82400880,"Hampton Inn Birmingham/Leeds",33.539007030232,-86.589421033859,BHMHA,"Hampton Inn by Hilton Alabaster Birmingham",33.232579,-86.799364,15.926647
72650706,"Inverness Glamping",57.46993272,-4.15242032,INVGB,"Hampton by Hilton Inverness",57.481424,-4.22595,11.678656
72879611,"Hampton Inn Stockton",37.90583203754,-121.21943503439,SCKME,"Hampton Inn by Hilton Stockton",37.905889,-121.219746,19.599571
71993586,"DoubleTree by Hilton Ann Arbor North",42.304027,-83.689484,ARBAA,"Doubletree by Hilton Ann Arbor North",42.304229,-83.689781,30.093058
12632375,"Hampton Inn by Hilton London",42.927127,-81.21355182209,XFDON,"Hampton Inn by Hilton Stratford",43.354127,-80.99534,14.2820015
31437586,"Hilton Garden Inn Raleigh-Durham/Research Triangle Park",35.893083067483,-78.848716020584,RDUWP,"Hilton Garden Inn Raleigh PNC Arena Wade Park",35.806301,-78.727585,16.835716
28711415,"Home2 Suites by Hilton Calhoun",34.4702845,-84.91695425,RMGCH,"Home2 Suites by Hilton Calhoun",34.4709,-84.91679,25.020859
55975095,"Homewood Suites by Hilton Columbus Easton",40.05872021,-82.92316358,CMHCS,"Home2 Suites by Hilton Columbus Easton",40.034778,-82.910896,22.562023
65621862,"Hampton by Hilton Bath City",51.38039852,-2.36331984,BATUM,"Hampton by Hilton Bath City",51.380549,-2.363474,23.391273
37256331,"Wharton Inn",29.32902604,-96.09540072,WHTDF,"Hampton Inn by Hilton Wharton",29.328288,-96.119053,16.567028
65988902,"Hilton Tallinn Park",59.43357442178,24.768593609333,TTLEE,"Hampton by Hilton Tallinn",59.431609,24.769837,16.276031
97862444,"Desert Inn Van Horn",31.04027512,-104.82691943,VHNTH,"Home2 Suites by Hilton Van Horn",31.03413,-104.859302,15.775942
77046022,"Home2 Suites by Hilton Hammond",41.571876693777,-87.459686003705,MDWHA,"Home2 Suites by Hilton Hammond",41.571914,-87.459406,24.892155
29470386,"Hilton Garden Inn Guizhou Maotai Town",27.85220037,106.37547153,WMTMT,"Hilton Garden Inn Guizhou Maotai Town",27.852197,106.375588,30.408026
71107120,"Accra City Apartments",5.56622357,-0.2119081,ACCCC,"Hilton Accra City Centre",5.612695,-0.212077,15.746869
51676626,"Aloft Dublin Pleasanton",37.70354859,-121.86523019,LVKDB,"Tru by Hilton Dublin",37.704278,-121.861942,9.182341
78313931,"Home2 Suites by Hilton Vero Beach I-95",27.63729,-80.513578,VRBIN,"Home2 Suites by Hilton Vero Beach I-95",27.638597,-80.515446,31.013151
25573920,"NYLO Dallas Plano Hotel, Tapestry Collection by Hilton",33.08925042,-96.8057803,FTWWL,"The Entrada Hotel, Tapestry Collection by Hilton",32.988279,-97.181631,15.812286
39904684,"Hilton Garden Inn Denver Airport",39.771493758784,-104.79671984911,DENVA,"Hilton Garden Inn Denver Airport Tower Road",39.815935,-104.770308,22.03959
12830102,"DoubleTree by Hilton Frankfurt Niederrad",50.080466872118,8.628293402447,FRAFN,"DoubleTree by Hilton Frankfurt Niederrad",50.080405,8.628217,29.407799
62001015,"Hilton Baku",40.372145234315,49.849653840065,BAKAZ,"Hilton Garden Inn Baku",40.38845,49.840787,16.75981
58783415,"Tru by Hilton Concord",43.177272,-71.531117,CONDI,"Tru by Hilton Concord",43.17729,-71.531111,23.986654
41888400,"Hilton San Diego Gaslamp Quarter",32.708053818227,-117.16075821453,SANDQ,"Motto by Hilton San Diego Gaslamp Quarter",32.712899,-117.158965,31.845505
71852982,"The Nomad Hotel",51.5134882,-0.1219973,NDAAA,"NoMad Test Facility",51.510801,-0.151043,9.152994
85914411,"DoubleTree by Hilton Dubai - Business Bay",25.186663933247,55.280115474226,DXBAI,"Embassy Suites by Hilton Dubai Business Bay",25.180754,55.278057,20.417261
85914411,"DoubleTree by Hilton Dubai - Business Bay",25.186663933247,55.280115474226,DXBPI,"Hilton Garden Inn Dubai Business Bay",25.180754,55.278057,18.204557
28803586,"Hagia Sofia Mansions Istanbul, Curio Collection by Hilton",41.00662034,28.97902571,ISTHS,"Hagia Sofia Mansions Istanbul, Curio Collection by Hilton",41.006702,28.979024,37.862858
13608800,"Canopy by Hilton Portland Waterfront",43.654118427882,-70.255861746176,PWMOP,"Canopy by Hilton Portland Waterfront",43.653999,-70.25589,28.182865
96378811,"Homewood Suites by Hilton Novi Detroit",42.48231089,-83.46937699,DTWRA,"Home2 Suites by Hilton Novi Detriot",42.479397,-83.477559,16.374084
46470797,"Tru by Hilton Jacksonville South Mandarin",30.1839461,-81.63087623,JAXMK,"Tru by Hilton Jacksonville Airport I-95",30.482357,-81.647346,19.367601
,,,,CMNPY,"Metropolitan, LXR Hotels & Resorts",33.589367,-7.638847,0
37056215,"Home2 Suites by Hilton Lincolnshire Chicago",42.19157139,-87.93466225,ORDWA,"Home2 Suites by Hilton Lincolnshire Chicago",42.191515,-87.933964,28.551731
81199542,"Hampton Inn by Hilton Queretaro Tecnologico",20.617418624896,-100.40957516071,QROQA,"Hampton by Hilton Queretaro Airport",20.634444,-100.1987,18.709385
23010444,"Tru By Hilton Milford Cincinnati",39.15786414,-84.27269947,CVGMF,"Tru by Hilton Milford Cincinnati",39.157943,-84.272756,29.470024
77100193,"Home2 Suites by Hilton Minneapolis University Area",44.971220092907,-93.216740245369,MSPTC,"Home2 Suites by Hilton Minneapolis University Area",44.971554,-93.217072,28.864162
19068182,"Embassy Suites by Hilton Panama City Beach Resort",30.21570985,-85.87374861,ECPPP,"Embassy Suites by Hilton Panama City Beach Resort",30.215101,-85.874801,25.583664
26283106,"Home2 Suites by Hilton Bakersfield",35.36825841,-119.09354661,BFLAP,"Home2 Suites by Hilton Bakersfield Airport",35.440866,-119.077637,24.556679
77177782,"Hampton Inn Needles",34.84824418,-114.61572718,EEDIT,"Hampton Inn by Hilton Needles",34.84822,-114.615665,20.366999
95828320,"Homewood Suites by Hilton Slidell",30.311065,-89.830171,MSYUN,"Home2 Suites by Hilton Slidell",30.267675,-89.759271,19.023155
19686764,"Homewood Suites by Hilton Orange New Haven",41.25206538,-72.99878594,HVNES,"Tempo by Hilton New Haven Downtown",41.30749,-72.923346,14.376896
12787266,"The Mosey Buffalo Williamsville, Tapestry Collection by Hilton",42.960365268518,-78.758901324537,BUFWL,"The Mosey Buffalo Williamsville, Tapestry Collection by Hilton",42.959655,-78.758885,37.30247
66960695,"Hampton Inn & Suites Rochester Downtown",43.152487282178,-77.598545933406,ROCCK,"Hampton Inn & Suites by Hilton Rochester Downtown",43.152762,-77.598613,23.165407
10080684,"Home2 Suites by Hilton Milwaukee West",43.019547,-87.999596,MKEMW,"Home2 Suites by Hilton Milwaukee West",43.020218,-87.99945,25.928335
89088193,"Hilton Garden Inn Corpus Christi",27.695770165445,-97.351028489132,CRPPC,"Hampton Inn by Hilton Corpus Christi Packery Channel",27.626697,-97.223771,22.864395
17364411,"Home2 Suites By Hilton Weatherford",35.52189726,-98.69448489,WEARE,"Home2 Suites by Hilton Weatherford",35.521955,-98.694565,25.669735
10981037,"Home2 Suites by Hilton Waco",31.52760061,-97.13433983,ACTBU,"Home2 Suites by Hilton Bellmead Waco North",31.606664,-97.102737,24.231203
98104582,"Hampton by Hilton High Wycombe",51.61374336,-0.76533925,HYCOM,"Hampton by Hilton High Wycombe",51.61378,-0.765472,27.70397
72356444,"Homewood Suites by Hilton Yorktown Newport News",37.1092126,-76.4657492,PHFNN,"Home2 Suites by Hilton Newport News",37.11566,-76.505555,20.879799
66962764,"Hampton Inn & Suites Lubbock University",33.59296206,-101.87850864,LBBLU,"Hampton Inn & Suites by Hilton Lubbock University",33.593156,-101.878841,23.753521
50558946,"Homewood Suites By Hilton Cincinnati Midtown",39.15890257,-84.42953105,CVGOO,"Homewood Suites by Hilton Cincinnati Uptown University",39.134511,-84.496383,21.408516
22117851,"Hilton Lanzhou City Center",36.0539198,103.85429863,LHWTR,"Hilton Lanzhou City Center",36.053905,103.854321,22.252045
46470797,"Tru by Hilton Jacksonville South Mandarin",30.1839461,-81.63087623,JAXJF,"Tru by Hilton Jacksonville South Mandarin",30.183971,-81.630978,30.394238
38900444,"The Burgundy Hotel, Tapestry Collection by Hilton",34.767230006176,-92.398645614466,LITEM,"The Burgundy Hotel, Tapestry Collection by Hilton",34.7672,-92.3988,27.020975
79508822,"DoubleTree By Hilton Edmonton Downtown",53.54405127,-113.4820077,YEARS,"DoubleTree by Hilton Edmonton Downtown",53.544474,-113.481892,26.247372
94816491,"DoubleTree by Hilton Sulphur Lake Charles",30.214362256645,-93.379480263903,LCHSU,"Doubletree by Hilton Sulphur Lake Charles",30.214702,-93.379622,30.156567
93508877,"Conrad Orlando",28.4058084,-81.52674878,ORLCI,"Conrad Orlando",28.409329,-81.526992,21.398478
48214157,"MPM Hotel Bansko Spa & Holidays",41.839403,23.478045,SOFBA,"DoubleTree by Hilton Bansko Resort & SPA",41.839466,23.476029,12.704639
59400477,"SORO Montevideo Curio Collection by Hilton",-34.91732096,-56.15013294,MVDSO,"SORO Montevideo, Curio Collection by Hilton",-34.917328,-56.150139,33.612995
38826775,"Hampton by Hilton Barcelona Fira Gran Via",41.35584762,2.127066699762,BCNGV,"Hampton by Hilton Barcelona Fira Gran Via",41.355864,2.12701,32.04022
92662284,"Hilton Melbourne Little Queen Street",-37.81481211,144.95947372,MELSQ,"Hilton Melbourne Square",-37.824469,144.963787,11.41881
68480800,"Tru by Hilton Manteca",37.799258804882,-121.1929495043,MODMA,"Tru by Hilton Manteca",37.799328,-121.192601,26.22575
34241986,"SunCoast Park Hotel Anaheim, Tapestry Collection by Hilton",33.80763284952,-117.90891638756,SANEW,"Hotel Santa Ana, Tapestry Collection by Hilton",33.712155,-117.849541,16.031017
64255291,"Jeddah Hilton Hotel",21.60456674717,39.109121984131,JEDIS,"Doubletree by Hilton Jeddah King Abdullah Square Hotel & Suites",21.510011,39.169278,16.156754
72101622,"Hampton Inn & Suites Petoskey",45.36555,-84.971829,PLNIF,"Home2 Suites by Hilton Petoskey",45.366562,-84.992098,13.926754
74057793,"MM Grand Hotel Puebla, Tapestry Collection by Hilton",19.042961250154,-98.237861686478,PBCMM,"MM Grand Hotel Puebla, Tapestry Collection by Hilton",19.03967,-98.241869,30.437458
55462171,"DoubleTree by Hilton Brussels City",50.855484,4.359613,BRUDT,"DoubleTree by Hilton Brussels City",50.855416,4.360186,24.082327
84859542,"Sapporo Park Hotel",43.047666628675,141.35620593254,SPKMF,"Hilton Sapporo Park",43.04779,141.356125,13.742238
87494215,"DoubleTree by Hilton Istanbul Topkapi",41.02634,28.9208,ISTES,"DoubleTree by Hilton Istanbul Gayrettepe",41.067514,29.004356,19.564007
96954640,"Al Muhaidb Residence Abha",18.20597051,42.49198011,AHBAM,"DoubleTree by Hilton Abha Al Marooj",18.233564,42.561031,14.580099
88431655,"ZaZa Houston Museum District",29.7245873,-95.390271888889,HOUSM,"Hampton Inn  Suites by Hilton Houston Museum District",29.724032,-95.384669,20.7831
63597346,"Home2 Suites by Hilton Midland East",32.03820462,-102.08507801,MAFGS,"Home2 Suites by Hilton Midland East",32.038249,-102.085058,26.235054
75491084,"Hilton Garden Inn Prescott Downtown",34.54538998,-112.47034854,PRCDT,"Hilton Garden Inn Prescott Downtown",34.545473,-112.470425,24.63961
64647324,"Hotel Ardent Dayton Downtown, Tapestry Collection by Hilton",39.76207172,-84.19286499,DAYBD,"Hotel Ardent Dayton Downtown, Tapestry Collection by Hilton",39.7621,-84.192896,33.090992
24830386,"Hampton Inn Kissimmee North",28.34197444,-81.40456566,ORLAN,"Hampton Inn by Hilton Kissimmee North",28.341894,-81.404533,22.792116
89614364,"Umbral Curio Collection By Hilton",19.43118475,-99.13564492,MEXUB,"Umbral, a Curio Collection by Hilton",19.431213,-99.135644,28.799908
76044960,"Home2 Suites by Hilton Dallas Medical District Lovefield",32.809193212881,-96.833801934584,DALAA,"Home2 Suites Dallas Medical",32.809609,-96.832701,16.961899
11109815,"Fairfield Inn & Suites Birmingham Bessemer",33.367672040348,-87.005922496319,BHMMR,"Hampton Inn and Suites Bessemer Birmingham",33.365907,-87.006778,20.890377
69193186,"Embassy Suites by Hilton Myrtle Beach Oceanfront Resort",33.767281552641,-78.778259754181,MYROR,"Home2 Suites by Hilton Myrtle Beach Oceanfront Resort",33.701692,-78.86878,23.682325
51250284,"Hampton Inn Bakersfield Central",35.367522,-119.039219,BFLUE,"Hampton Inn & Suites by Hilton Bakersfield Central",35.368675,-119.045905,22.934795
34710124,"DoubleTree Resort by Hilton Myrtle Beach Oceanfront",33.657627,-78.919642,MYRBO,"Hilton Garden Inn Myrtle Beach Oceanfront Resort",33.701832,-78.86896,20.99771
79278717,"Home2 Suites by Hilton Portland",27.8977846,-97.30930479,CRPPL,"Tru by Hilton Portland",27.89763,-97.308634,13.795069
27260546,"Hampton Inn & Suites Astoria",46.194632,-123.799356,PDXAS,"Home2 Suites by Hilton Astoria",46.179946,-123.85908,10.8081455
15738320,"Hampton Inn Harker Heights",31.06908404,-97.66651255,ILEHX,"Hampton Inn by Hilton Harker Heights Killeen",31.068672,-97.666383,25.38723
48048135,"Be Live Collection Marien",19.77719,-70.65949,STISA,"Hotel Santiago, Curio Collection by Hilton",19.458465,-70.6837,5.7673864
79207840,"DoubleTree by Hilton Harrisonburg",38.436241225,-78.848294475,SHDHU,"Home2 Suites by Hilton Harrisonburg University",38.423887,-78.843038,17.354761
66127175,"The Andaman, a Luxury Collection Resort, Langkawi",6.428717322745,99.676059330025,LGKWY,"Langkawi Curio a Collection by Hilton",6.292606,99.726382,13.938509
21866146,"Motto by Hilton New York City Chelsea",40.744071377576,-73.992982239941,NYCDL,"Motto by Hilton New York City Chelsea",40.744227,-73.992989,31.388634
58986615,"Doubletree By Hilton Chengdu Riverside",30.6535,104.058,CTUXL,"DoubleTree by Hilton Chengdu Xinglong Lake",30.409979,104.091357,18.704998
22283826,"Doubletree By Hilton Jiaxing",30.77005866,120.69391301,HGHJP,"DoubleTree by Hilton Jiaxing Port",30.617621,121.100975,23.093517
65341484,"Springhill Suites Montgomery Downtown",32.38041756,-86.31022916,MGMPS,"Home2 Suites by Hilton Montgomery Downtown",32.38263,-86.30742,18.182625
42030320,"Las Vegas Hilton at Resorts World",36.135251700407,-115.16692500325,LASHH,"Las Vegas Hilton at Resorts World",36.135263,-115.166925,28.568993
,,,,UUSYS,"Doubletree by Hilton Yuzhno-Sakhalinsk",46.904391,142.745015,0
15876044,"Hampton Inn Albertville",34.27731089,-86.20235073,BHMAV,"Hampton Inn by Hilton Albertville",34.277306,-86.202367,20.653975
82443942,"Conrad Las Vegas at Resorts World",36.13466201,-115.16562063,LASCD,"Conrad Las Vegas at Resorts World",36.134628,-115.165591,31.315662
99460844,"Hilton Lima Miraflores",-12.128967916607,-77.026615853189,LIMLI,"Hampton by Hilton Lima Miraflores",-12.124039,-77.026776,23.915586
92413691,"Hampton Inn by Hilton Detroit Southfield",42.48148298,-83.25374539,DTWSF,"Hampton Inn by Hilton Detroit Southfield",42.48147,-83.25432,27.567068
23884262,"Home2 Suites by Hilton Miramar Ft. Lauderdale",25.983101811761,-80.347397404299,FLLOC,"Homewood Suites by Hilton Ft. Lauderdale Beach North",26.165595,-80.101111,20.441164
61161117,"Hilton Batumi",41.64912066,41.62572166,XHQAV,"DoubleTree by Hilton Hopa",41.460733,41.475806,6.595391
87041106,"Home2 Suites by Hilton Albuquerque Airport",35.05189099,-106.63157238,ABQDL,"Home2 Suites by Hilton Albuquerque Airport",35.05192,-106.631684,25.44795
85358855,"Tokyo Nihonbashi Bay Hotel",35.67996821,139.77333978,TYOWA,"Waldorf Astoria Tokyo Nihonbashi",35.683057,139.775675,16.894722
27875542,"Hampton Inn Orlando Lake Nona, FL",28.35970395,-81.24246733,MCONO,"Hampton Inn by Hilton Orlando Southeast Nona",28.359594,-81.242425,20.1451
63816695,"The Banyan Hotel Fort Myers, Tapestry Collection by Hilton",26.643129467845,-81.870656641845,FMYFM,"The Banyan Hotel Fort Myers, Tapestry Collection by Hilton",26.642903,-81.870599,31.803307
40231713,"Home2 Suites by Hilton Austin Cedar Park",30.474474,-97.803087,AUSSE,"Home2 Suites by Hilton Cedar Park North Austin",30.525,-97.812,27.463861
53862011,"Home2 Suites by Hilton Orlando Lake Nona",28.35968723,-81.24238241,MCOLN,"Home2 Suites by Hilton Orlando Southeast Nona",28.359594,-81.242425,25.860813
82370535,"Home2 Suites By Hilton Charlottesville Downtown",38.02884934,-78.48503375,CHOCL,"Home2 Suites by Hilton Charlottesville",38.061941,-78.487704,22.356081
87419004,"The Rewind West Des Moines, Tapestry Collection by Hilton",41.560185501123,-93.791415875661,DSMMC,"The Rewind West Des Moines, Tapestry Collection by Hilton",41.559882,-93.791531,34.544926
53478593,"Hampton Inn By Hilton Goddard",37.66180023,-97.56596005,ICTGD,"Hampton Inn by Hilton West Wichita Goddard",37.66184,-97.565978,24.021683
24178193,"Home2 Suites by Hilton Cheyenne",41.11629256,-104.80899022,CYSCC,"Hampton Inn  Suites by Hilton Cheyenne WY",41.127297,-104.830261,18.867405
56531302,"Senna House Scottsdale, Curio Collection by Hilton",33.5707,-111.915,PHXTT,"Senna House Hotel Scottsdale, Curio Collection by Hilton",33.501912,-111.920058,32.442505
43525520,"Candlewood Suites  Vancouver Camas",45.60604152263,-122.47595066786,PDXVW,"Tru by Hilton Camas Vancouver",45.624705,-122.474732,19.038826
12323211,"Hilton Des Moines Downtown",41.588329,-93.615616,DSMDD,"Tru by Hilton Des Moines Downtown",41.579848,-93.626747,24.418327
15255542,"GreenTree Inn Anyang Neihuang County Zaoxiang Avenue",35.98475025,114.9155645,HDGAY,"Hilton Garden Inn Anyang County",36.098332,114.454301,13.024273
61975517,"Lahore Backpackers",31.5094,74.3245,LHEFT,"Hilton Lahore Finance & Trade Centre",31.464899,74.261381,12.371954
39745826,"DoubleTree by Hilton Seoul Pangyo Residences",37.371986621017,127.11617860675,SELPY,"DoubleTree by Hilton Seoul Pangyo Residences",37.38089,127.10418,31.244644
59859771,"Tru by Hilton Port St. Lucie",27.25662046,-80.42750259,FPRSL,"Tru by Hilton Port St. Lucie Tradition",27.256945,-80.42665,30.119287
58266240,"Courtyard Houston Downtown/Convention Center",29.75563777867,-95.366725854768,HOUDT,"Tru by Hilton Houston Downtown Convention Center",29.749851,-95.364075,21.693756
67364811,"Homewood Suites by Hilton Kalamazoo-Portage",42.23796905,-85.5949797,AZOHK,"Tru by Hilton Kalamazoo",42.259755,-85.527045,14.4551935
88779117,"Hilton Addis Ababa",9.018648406367,38.76503851899,ADDHH,"DoubleTree by Hilton Addis Ababa Haya Hulet Hotel and Spa",9.016487,38.788247,27.00959
87338615,"Home2 Suites by Hilton El Reno",35.5100407,-97.96986158,OKCHC,"Home2 Suites by Hilton Chickasha",35.046275,-97.923834,14.728965
84253986,"Hilton Garden Inn St. Pete Beach",27.733085711239,-82.746045218456,PIESP,"Hilton Garden Inn St. Pete Beach",27.732713,-82.746826,26.06855
91121997,"Home2 Suites by Hilton Ft. Pierce I-95",27.41285473,-80.39258584,MLBFP,"Home2 Suites by Hilton Ft. Pierce I-95",27.412875,-80.392593,34.005333
36102866,"DoubleTree by Hilton Cangnan",27.9879,120.675,WNZRA,"DoubleTree by Hilton Ruian",27.76808,120.579338,14.597922
40977211,"Hampton Inn Nicholasville Brannon Crossing",37.955095500188,-84.527338834324,LEXBC,"Hampton Inn by Hilton Nicholasville Brannon Crossing",37.954461,-84.527102,33.627228
96131404,"Doubletree by Hilton Hotel Bucharest - Unirii Square",44.424247333384,26.119332027554,BUHBU,"DoubleTree by Hilton Bucharest Parliament",44.422775,26.090518,17.204388
39100160,"Hampton Inn Beaumont",30.042157,-94.151674,BPTDN,"Hampton Inn by Hilton Beaumont Downtown",30.081866,-94.097993,19.43218
61271666,"Hilton Garden Inn Hanover Arundel Mills BWI Airport",39.16105798,-76.71331367,WASHB,"Hilton Garden Inn Hanover Arundel Mills BWI Airport",39.160945,-76.713197,36.51001
86110560,"Hampton Inn Circleville",39.58112259,-82.95164336,LCKCV,"Hampton Inn by Hilton Circleville",39.58111,-82.951653,21.554037
26555506,"Homewood Suites by Hilton Hanover Arundel Mills BWI Airport",39.1611023,-76.71321909,WASHA,"Homewood Suites by Hilton Hanover Arundel Mills BWI Airport",39.160945,-76.713197,37.921047
72486193,"Hilton North Scottsdale at Cavasson",33.65722664,-111.90969713,SCFNS,"Hilton North Scottsdale at Cavasson",33.656718,-111.909766,31.054209
20740822,"Hampton Inn Verona at Turning Stone",43.11266241,-75.5984427,SYRVE,"Hampton Inn by Hilton Verona at Turning Stone",43.11259,-75.598558,30.441484
82878193,"Kaunas City Hotel",54.897729,23.907124,KUNCC,"Hilton Garden Inn Kaunas City Centre",54.895692,23.918418,16.74283
42918822,"Homewood Suites by Hilton Missoula",46.90946,-114.036769,MSOHM,"Homewood Suites by Hilton Missoula",46.909342,-114.037159,25.525589
36964262,"Hilton Garden Inn Changchun Economic Development Zone",43.86453453,125.39726747,CGQGI,"Hilton Garden Inn Changchun Economic Development Zone",43.870909,125.403956,31.573826
16987975,"Hampton by Hilton Warsaw Reduta",52.21235263,20.94793432,WAWPL,"Hampton by Hilton Warsaw Reduta",52.212247,20.947886,29.042934
41852637,"City Comfort Inn Ganzhou Xinfeng Railway Station Yingbin Avenue",25.38093279,114.93393651,KOWAY,"Hilton Garden Inn Ganzhou Anyuan",25.123169,115.392258,6.9734726
15417760,"Homewood Suites by Hilton Nashville-Downtown",36.162063718196,-86.782988495584,BNADS,"Homewood Suites by Hilton Nashville Downtown the Gulch",36.151126,-86.781433,25.933037
40306226,"Hampton by Hilton Targu Mures",46.52971123,24.54406367,TGMRO,"Hampton by Hilton Targu Mures",46.530369,24.544538,30.153458
74149804,"Courtyard Sarasota Bradenton Airport",27.38152763236,-82.554042744087,TPASA,"DoubleTree by Hilton Sarasota Bradenton Airport",27.397607,-82.545785,23.319395
16504935,"Home2 Suites by Hilton Temecula",33.49808147,-117.1596714,CLDTC,"Hotel Temecula, Curio Collection by Hilton",33.494476,-117.14882,15.669769
86639997,"Mövenpick Hotel Gammarth Tunis",36.893832,10.321143,TUNTG,"Hilton Tunis Gammarth",36.915103,10.315464,20.59275
27830833,"Datong Hotel",40.07612,113.29694,DATHI,"Hilton Datong",40.102957,113.37371,10.793447
68248077,"Homewood Suites by Hilton San Diego Downtown/Bayside",32.726075759848,-117.1718789131,SANSD,"Home2 Suites by Hilton San Diego Downtown",32.719629,-117.159938,19.982613
24383917,"San Diego Downtown Lodge",32.719509,-117.155468,SANDC,"Tru by Hilton San Diego Downtown",32.719629,-117.159938,17.896715
69161713,"DoubleTree by Hilton Beijing Badaling",40.46287644,115.9831619,BJSBD,"DoubleTree by Hilton Beijing Badaling",40.462778,115.983333,27.057945
96712662,"Hilton Garden Inn Zhuhai Hengqin Sumlodol Park",22.27075946,113.57661907,MFMHQ,"Hilton Garden Inn Zhuhai Hengqin Sumlodol Park",22.137605,113.46832,32.97686
45761760,"Pingchen Changxing Apartments",30.7538,120.009,HGHCX,"Hilton Garden Inn Changxing",31.046405,119.997614,10.752879
88363506,"Home2 Suites by Hilton Savannah Airport",32.14244099,-81.25292433,SAVED,"Home2 Suites by Hilton Savannah Gateway",32.00718,-81.285778,21.093872
58825975,"Andaz Mexico City Condesa",19.4078574,-99.1690248,MEXCR,"Motto by Hilton Mexico City Condesa Roma",19.4175,-99.169444,21.818295
32565735,"Home2 Suites by Hilton San Bernardino",34.071102,-117.2684727,ONTSB,"Home2 Suites by Hilton San Bernardino",34.071315,-117.268473,25.918219
46618993,"Super 8 by Wyndham Commerce",34.257504694652,-83.461219968648,AHNHC,"Tru by Hilton Commerce",34.252405,-83.460932,10.119671
88440604,"Wasserturm Hotel Cologne, Curio Collection by Hilton",50.931568045626,6.951494514942,CGNWT,"Wasserturm Hotel Cologne, Curio Collection by Hilton",50.931602,6.951323,31.453365
57040317,"Hilton Garden Inn Cedar Rapids",42.02782596,-91.70526791,CIDCR,"Hilton Garden Inn Cedar Rapids",42.027805,-91.705224,24.77096
87484717,"Jameson Inn Perry",32.467063,-83.744532,MCNPY,"Hilton Garden Inn Perry",32.468162,-83.743863,13.093009
27492146,"Homewood Suites by Hilton Arlington Rosslyn Key Bridge",38.89711609,-77.07882238,DCART,"Hilton Arlington Rosslyn The Key",38.897701,-77.07297,20.428066
98778902,"Hyatt House Jeddah Sari Street",21.57793815,39.15346208,JEDSS,"Embassy Suites by Hilton Jeddah Sari Street",21.572409,39.137146,18.761887
44760157,"DoubleTree By Hilton Omaha Southwest",41.225855191144,-96.024633635582,OMAST,"DoubleTree by Hilton Omaha Southwest",41.22599,-96.025029,28.500917
24989931,"DoubleTree by Hilton Canton Downtown",40.796705205561,-81.375087630183,CAKCO,"DoubleTree by Hilton Canton Downtown",40.796626,-81.374828,25.670162
20973666,"Home2 Suites by Hilton Bolingbrook Chicago",41.68883826,-88.07152316,MDWBC,"Home2 Suites by Hilton Bolingbrook Chicago",41.688794,-88.07159,28.964695
95889735,"Fairfield Inn & Suites Lexington North",38.10168,-84.480918,LEXLN,"Hampton Inn Suites by Hilton Lexington North",38.097152,-84.48485,17.389502
77827357,"Hampton Inn by Hilton Montreal Downtown",45.50780074,-73.55893942,YMQHX,"Hampton Inn by Hilton Montreal Anjou QC",45.598808,-73.572708,19.887915
17039542,"Hampton Inn & Suites Vacaville-Napa Valley",38.35458897452,-121.98243851599,SMFVC,"Hampton Inn and Suites by Hilton Vacaville",38.3545,-121.979857,17.859894
61913313,"Conrad Nashville",36.15438774,-86.79410019,BNALE,"Conrad Nashville",36.154593,-86.794072,21.21249
83815746,"Courtyard Atlanta Buford Mall Of Georgia",34.059432637684,-83.995730280876,ATLBD,"Hilton Garden Inn Buford Mall of Georgia",34.066207,-83.976236,25.2561
45671371,"Tru by Hilton Miami Airport South Blue Lagoon",25.781529423904,-80.286495903636,MIABN,"Tru by Hilton Miami Airport South Blue Lagoon",25.781471,-80.286892,31.03947
42793840,"Bloom Mississauga, Tapestry Collection by Hilton",43.654706,-79.69471121,YYZMG,"Bloom Mississauga, Tapestry Collection by Hilton",43.654759,-79.694701,32.05992
92032375,"Home2 Suites by Hilton Miami Airport South Blue Lagoon",25.781491,-80.287044,MIAAA,"Home2 Suites by Hilton Miami Airport South Blue Lagoon",25.781497,-80.287047,30.212887
92097724,"Hilton San Salvador",13.70956269,-89.24162964,SALSA,"Hilton San Salvador",13.70955,-89.2417,20.7859
90093004,"Hampton Inn & Suites by Hilton Port Lavaca",28.634787026706,-96.625013313867,VCTLA,"Hampton Inn & Suites by Hilton Port Lavaca",28.634383,-96.624614,26.719845
85298124,"Homewood Suites by Hilton Bentonville-Rogers",36.333337,-94.17789,ROGAR,"Tru by Hilton Rogers Bentonville",36.332711,-94.181009,21.52892
88063746,"Hotel Royer Urbana, Tapestry Collection by Hilton",40.111028,-88.207883,CHIUL,"Hotel Royer Urbana, Tapestry Collection by Hilton",40.111204,-88.208211,31.971125
98841440,"Tru by Hilton Garland Richardson",32.96071037,-96.63889075,DALGA,"Hampton Inn & Suites by Hilton Garland",32.952673,-96.616812,15.969088
76780342,"DoubleTree by Hilton Hotel Jackson",35.654751786794,-88.851392078539,MKLJK,"Tru by Hilton Jackson",35.658885,-88.872057,14.085844
92027440,"Tru by Hilton Orlando Convention Center Area",28.419352,-81.468995,ORLFF,"Tru by Hilton Sanford Orlando",28.766737,-81.280721,16.908823
54839575,"Hilton Garden Inn Panama City Airport",30.33567911,-85.79798777,ECPPC,"Hilton Garden Inn Panama City Airport",30.335682,-85.797879,23.863825
58432022,"Hilton Los Angeles Airport",33.945754897479,-118.38161263558,HHRLA,"Hilton Garden Inn Hawthorne Los Angeles International Airport",33.929801,-118.351608,22.620035
85986146,"DoubleTree by Hilton Guadalajara Centro Historico",20.67545509,-103.34798627,GDLDT,"DoubleTree by Hilton Guadalajara Centro Historico",20.675558,-103.347967,31.920053
13444811,"Homewood Suites by Hilton Los Angeles International Airport",33.94625815,-118.39274093,HHRAA,"Home2 Suites by Hilton Hawthorne Los Angeles International Airport",33.929801,-118.351608,23.03897
81921106,"DoubleTree by Hilton Sittard",50.99763688,5.8651327,MSTSI,"DoubleTree by Hilton Sittard",50.997649,5.865123,24.97374
46820924,"Tru by Hilton Fort Lauderdale Downtown",26.12568888,-80.14467556,FLLMI,"Tru by Hilton Miramar",25.985041,-80.340972,12.765015
98875942,"Homewood Suites By Hilton Savannah Historic District",32.079003517946,-81.083119245508,SAVLS,"Tru by Hilton Savannah Historic District",32.075274,-81.094325,21.760687
76365975,"Hilton Geneva Hotel & Conference Centre",46.236288589503,6.119803190231,GVACC,"Hilton Geneva Hotel & Conference Centre",46.236573,6.119507,23.832804
64150320,"Homewood Suites by Hilton Poughkeepsie",41.66003679,-73.93249585,POUKH,"Home2 Suites by Hilton Poughkeepsie",41.66834,-73.93115,18.680283
30640251,"Canopy By Hilton Hangzhou West Lake",30.25158876,120.16325947,HGHWL,"Canopy by Hilton Hangzhou West Lake",30.249336,120.16753,27.046516
80837280,"Hilton Riyadh Olaya",24.7100136,46.67238075,RUHTH,"DoubleTree by Hilton Riyadh Olaya North",24.706067,46.675683,26.102188
96358960,"Hilton Rijeka Costabella Beach Resort & Spa",45.346907315226,14.350297363021,RJKOC,"Hilton Rijeka Costabella Beach Resort & Spa",45.347091,14.350503,29.800375
25290251,"Home2 Suites by Hilton Stafford Quantico",38.47022927,-77.40083334,DCABT,"Home2 Suites by Hilton Bealeton",38.583615,-77.767533,14.776452
39091462,"Kathmandu Terrace",27.7133498,85.3111542,KTMDI,"DoubleTree by Hilton Kathmandu",27.7419,85.3397,11.677101
86591037,"Hotel Resonance Taipei Tapestry Collection by Hilton",25.04426539,121.52335071,TSAUP,"Hotel Resonance Taipei, Tapestry Collection by Hilton",25.044553,121.523334,30.555708
90820400,"Boarding House Cape May",38.937331727949,-74.919330311909,WWDCM,"Hampton Inn by Hilton Cape May Court House",39.088986,-74.811662,17.917278
30159495,"Hilton Rochester Mayo Clinic Area",44.02330249,-92.46275468,RSTRM,"Hampton Inn and Suites Rochester Mayo Clinic Area",44.025647,-92.470171,29.652834
71415757,"Home2 Suites by Hilton Seattle Airport",47.447816706955,-122.25683435495,SEAWA,"Home2 Suites by Hilton SeaTac Seattle Airport South",47.429357,-122.297375,25.002348
10237426,"The Hamilton A Curio by Hilton Hotel",34.07596467,-84.29550175,ATLCT,"The Hamilton Alpharetta, Curio Collection by Hilton",34.075941,-84.295309,19.893715
20786855,"Home2 Suites by Hilton Mesa Longbow",33.47275991,-111.70749733,PHXME,"Home2 Suites by Hilton Mesa Longbow",33.472284,-111.706469,30.349298
44023280,"Tru by Hilton Niceville Eglin Air Force Base",30.50198708,-86.43936141,VPSUS,"Tru by Hilton Niceville Eglin Air Force Base",30.501677,-86.439063,41.56676
36668146,"Homewood Suites by Hilton Cincinnati/West Chester",39.32236111,-84.42688149,CVGCE,"Home2 Suites by Hilton West Chester Cincinnati",39.321883,-84.427084,24.477587
64405026,"Tru by Hilton Phoenix Glendale Westgate",33.53095151,-112.26530663,PHXPG,"Tru by Hilton Phoenix Glendale Westgate",33.530879,-112.265498,32.43162
23976215,"Baymont by Wyndham Tehachapi",35.126479,-118.413783,TSPCA,"Hampton Inn by Hilton Tehachapi",35.146371,-118.450019,12.940486
42038753,"LaGuardia Plaza Hotel",40.767174,-73.867146,NYCLG,"LaGuardia Plaza Hotel",40.767059,-73.867039,18.25676
91609917,"Hilton Garden Inn Madison Huntsville Airport",34.67258684,-86.74955695,HSVAP,"Hilton Garden Inn Madison Huntsville Airport",34.671539,-86.750633,27.61661
80755197,"DoubleTree by Hilton Damai Laut Resort",4.259772341097,100.59159092262,IPHDL,"DoubleTree by Hilton Damai Laut Resort",4.25983,100.59165,29.36626
17255484,"Hilton Yancheng",33.34434199,120.14651055,YNZHI,"Hilton Yancheng",33.344352,120.146512,16.784431
93692240,"Essvee by Fabhotels",16.50900671,80.66235636,NAGAM,"DoubleTree by Hilton Amravati",16.524006,80.540833,3.0894642
22918833,"Home2 Suites by Hilton Martinsburg",39.45330055,-77.9877593,MRBMB,"Home2 Suites by Hilton Martinsburg",39.453345,-77.987865,25.450924
79951142,"Home2 Suites by Hilton Alpharetta",34.0742012,-84.2658142,AFYYY,"Home2 Suites by Hilton Acworth",34.08043,-84.656765,16.355259
34573244,"Embassy Suites San Rafael Marin County",38.004869666612,-122.53247115209,OAKFS,"Hampton Inn and Suites by Hilton San Rafael",37.959167,-122.503333,13.562041
13665440,"Guang'an Hotel",30.4459,106.655,CKGGA,"DoubleTree by Hilton Guang'an",30.469722,106.680278,12.224198
67668113,"Conrad Jiuzhaigou",33.28936176,103.87573467,JZHCI,"Conrad Jiuzhaigou",33.30768,103.81119,22.57
16795360,"Quest Bundoora",-37.682380614484,145.07333194489,MELBU,"Hilton Garden Inn Bundoora",-37.71196,145.047904,14.274322
69306651,"Hampton Inn & Suites South Lake Tahoe",38.950852805176,-119.94973889682,TVLCA,"Hampton Inn and Suites by Hilton South Lake Tahoe",38.951461,-119.950276,24.802448
62773964,"Granferte Phnom Penh",11.5802303,104.89184079,PNHPP,"Hilton Phnom Penh",11.57293,104.9119,20.80923
58015211,"Swissôtel Bangkok Ratchada",13.776034,100.573973,BKKRA,"Hilton Bangkok Ratchada",13.784701,100.574697,18.573513
16960411,"Homewood Suites by Hilton Louisville Airport",38.20273784,-85.75516414,SDFAI,"Homewood Suites by Hilton Louisville Airport",38.20275,-85.755201,25.321583
98347757,"Home2 Suites By Hilton Grand Rapids South",42.84862296,-85.72047791,GRRHT,"Home2 Suites by Hilton Grand Rapids South",42.848616,-85.720497,26.892551
98769953,"Midtown Old Fourth Ward",33.8146,-84.3877,ATLFW,"Motto by Hilton Atlanta Old Fourth Ward",33.753835,-84.371729,24.124928
14537037,"Hilton Paris La Defense",48.89288214983,2.238380136246,PARDW,"DoubleTree by Hilton Paris La Defense West",48.90923,2.237025,25.245882
27205371,"Hilton Garden Inn Mattoon",39.4830947371,-88.309675367164,DECIN,"Hilton Garden Inn Mattoon",39.4829,-88.30987,22.412956
18895575,"DoubleTree by Hilton Toyama",36.699948751594,137.211806,TOYSH,"DoubleTree by Hilton Toyama",36.69999,137.211783,23.888863
70475255,"Puncak Resort",-6.70488939493,107.04594493335,JKTPU,"DoubleTree by Hilton Puncak Resort",-6.702967,106.950825,14.988406
68982640,"Tru By Hilton San Antonio At The Rim, Tx",29.60287966,-98.59686027,SATOO,"Tru by Hilton San Antonio at the Rim",29.60286,-98.596882,27.31429
31359415,"Hampton Inn Kansas City Southeast",38.95322487,-94.52672073,MKCSE,"Hampton Inn by Hilton Kansas City Southeast",38.953165,-94.526502,26.088226
95734513,"Shell Jiangxi Province Fuzhou City Linchuan Avenue",27.9706,116.419,KHNFZ,"DoubleTree by Hilton Jiangxi Fuzhou",27.5617,116.2111,11.533505
50120800,"Hilton Yantai Golden Coast",37.58146467,121.18002504,YNTGB,"DoubleTree by Hilton Yantai Golden Coast Hotel & Suites",37.573412,121.181703,24.819033
77960924,"Days Inn by Wyndham Windsor Locks / Bradley Intl Airport",41.927357573111,-72.669135139331,BDLWA,"Tru by Hilton Windsor Locks Bradley Airport",41.931078,-72.668842,22.196283
68946091,"DoubleTree by Hilton Palmdale",34.581216599768,-118.13568838658,BURPA,"DoubleTree by Hilton Palmdale",34.581212,-118.135222,24.028639
75735964,Xi'an,34.2532559,108.9645467,XIYCI,"Waldorf Astoria Xi'an",34.211497,109.010326,10.09915
25747200,"Crowne Plaza Fort Myers at Bell Tower Shops",26.551646,-81.868664,FMYBT,"DoubleTree by Hilton Fort Myers at Bell Tower Shops",26.551324,-81.86828,29.926533
23638651,"Villa Court Inn Oroville",39.5069796,-121.5692633,CICHO,"Hampton Inn & Suites  Oroville",39.49957,-121.56994,13.498815
50466011,"Hotel Montera Madrid, Curio Collection by Hilton",40.419737489499,-3.701890641104,MADEM,"Hotel Montera Madrid, Curio Collection by Hilton",40.419718,-3.701839,30.538754
82771462,"DoubleTree by Hilton Monroe Township Cranbury",40.344225,-74.478257,EWRTS,"DoubleTree by Hilton Monroe Township Cranbury",40.344252,-74.478122,34.622826
50579633,"Embassy Suites Corpus Christi",27.717903414882,-97.392106236771,CRPDL,"Embassy Suites by Hilton Corpus Christi Downtown",27.797064,-97.39191,28.005116
59103426,"Almenat Embu das Artes, Tapestry Collection by Hilton",-23.645862870581,-46.881167836246,CGHEM,"Almenat Embu das Artes, Tapestry Collection by Hilton",-23.646111,-46.880833,39.606903
72510033,"Courtyard Kingston",41.969866566667,-73.986066833333,SWFLK,"Home2 Suites by Hilton Kingston",41.976346,-73.990627,10.747155
86293095,"Tru by Hilton Ft. Lauderdale Airport",26.05300779,-80.14314327,FLLPN,"Tru by Hilton Plantation Ft. Lauderdale West",26.1051,-80.251073,26.016869
80957920,"Conrad Tokyo",35.663119242188,139.76126700639,HNDCI,"Conrad Yokohama",35.451761,139.634391,11.513725
92676811,"Hilton Garden Samarkand",39.67354488,66.96685059,SKDDB,"Hilton Garden Inn Samarkand",39.673565,66.966812,21.494324
52025953,"Country Inn & Suites by Radisson, Frederick, MD",39.386623668192,-77.406771086512,FDKGP,"Tru by Hilton Frederick MD",39.407153,-77.388143,15.76125
58838477,"Homewood Suites by Hilton Austin-South/Airport",30.213695463665,-97.7496086061,AUSWB,"Homewood Suites by Hilton Austin Airport",30.214277,-97.700085,22.779984
36020684,"Hilton Singapore Orchard",1.30192876294,103.83590161801,SINOR,"Hilton Singapore Orchard",1.302041,103.835925,23.335386
73017277,"Candlewood Suites Raleigh Crabtree",35.840404342127,-78.673942406037,RDUCD,"Home2 Suites by Hilton Raleigh Crabtree",35.837271,-78.670602,22.217583
53741677,"Hampton Inn Lafayette",30.192825,-92.009597,LFTLS,"Hampton Inn by Hilton Lafayette Scott",30.24463,-92.065152,18.368448
11422935,"Liberty Place Charleston by Hilton Club",32.78911767,-79.93021264,CHSLP,"Hilton Club Liberty Place Charleston",32.78907,-79.93028,24.848053
34838717,"The Haywood El Dorado Tapestry Collection by Hilton",33.21094177,-92.66405988,ELDET,"The Haywood El Dorado Tapestry Collection by Hilton",33.210926,-92.664194,32.351295
39424182,"Hampton Inn & Suites Marshfield",44.680287127165,-90.170686230213,CWAMA,"Hampton Inn & Suites by Hilton Marshfield",44.680465,-90.170493,22.461576
69149942,"Home2 Suites by Hilton Savannah I95 North",32.19245161,-81.1963617,SAVAG,"Home2 Suites by Hilton Savannah I95 North",32.192434,-81.196335,31.420292
92663997,"Tru by Hilton Columbus Airport",39.99881859,-82.93254945,CMHCO,"Tru by Hilton Columbus East Broad",39.981169,-82.830707,20.541435
74262993,"Koi Resort Saint Kitts, Curio Collection by Hilton",17.30851957,-62.69290156,SKBKR,"Koi Resort Saint Kitts, Curio Collection by Hilton",17.308417,-62.693119,34.92311
40567782,"Homewood Suites by Hilton Montreal Downtown",45.5079035,-73.55888092,YULHW,"Homewood Suites by Hilton Montreal Downtown",45.507902,-73.558882,26.01596
39510957,"Capitol Plaza Hotel And Conference Center",44.260764711065,-72.578874518115,BTVCP,"Capitol Plaza Hotel Montpelier, Tapestry Collection by Hilton",44.260626,-72.57892,11.416922
19173484,"Boeira Garden Hotel Porto Gaia, Curio Collection by Hilton",41.12792905,-8.61215354,OPOBG,"Boeira Garden Hotel Porto Gaia, Curio Collection by Hilton",41.12798,-8.612567,33.55152
82533211,"Home2 Suites by Hilton Wichita Downtown Delano",37.68649908,-97.34636385,ICTDD,"Home2 Suites by Hilton Wichita Downtown Delano",37.685899,-97.34789,31.300596
10610993,"The Waters Hot Springs, Tapestry Collection by Hilton",34.514707475555,-93.05398105684,HOTTS,"The Waters Hot Springs, Tapestry Collection by Hilton",34.514722,-93.053889,31.00889
29337597,"TownePlace Suites Des Moines Urbandale",41.6532956,-93.7394901,DSMUD,"Homewood Suites by Hilton Urbandale Des Moines",41.649195,-93.739871,25.314266
68394422,"Motto by Hilton Rotterdam Blaak",51.922778,4.48681,RTMBL,"Motto by Hilton Rotterdam Blaak",51.922905,4.486724,33.86545
62434673,"Residence Inn Cincinnati Midtown/Rookwood",39.14863302,-84.4427985,CVGNC,"Hampton Inn and Suites by Hilton Cincinnati Midtown Rookwood",39.144612,-84.444734,26.12719
92478651,"Tru by Hilton Macon North",32.92615984,-83.73960521,MCNMN,"Tru by Hilton Macon North",32.926879,-83.738945,26.580828
49575382,"Tru by Hilton San Antonio North",29.64716066,-98.44904701,SATPK,"Tru by Hilton San Antonio North",29.647133,-98.44905,26.491663
83765451,"Hilton Garden Inn Brooklyn Downtown",40.694847,-73.983266,EWRDL,"Motto by Hilton Brooklyn Downtown",40.691137,-73.989917,17.147606
84095040,"Economy Inn Plymouth",41.363685,-86.312259,PLYPN,"Hampton Inn by Hilton Plymouth",41.360777,-86.345172,12.936668
99440582,"iCheck inn Ao Nang Krabi",8.041050714743,98.817773690807,KBVAN,"Hilton Garden Inn Krabi Ao Nang",8.01267,98.843766,23.740831
12442786,"Homewood Suites by Hilton Richmond Chester",37.352627,-77.398337,PTBCH,"Home2 Suites by Hilton Chester",37.353382,-77.400561,16.041298
23581917,"Hilton St. Augustine Historic Bayfront",29.894309536236,-81.311486810446,USTFH,"The Factory Hotel St. Augustine, Tapestry Collection by Hilton",29.890861,-81.318633,17.556679
24508891,"Hilton Garden Inn Haymarket",38.81218954,-77.63654677,IADHM,"Hilton Garden Inn Haymarket",38.812075,-77.636572,21.585796
41761680,"Tru by Hilton Smyrna Nashville",35.97424994,-86.57752024,BNAGV,"Tru  by Hilton Goodlettsville Nashville",36.317048,-86.698992,20.815506
86864673,"Home2 Suites by Hilton Nashville West End Avenue",36.13933361,-86.82142458,BNAEN,"Home2 Suites by Hilton Nashville West End Avenue",36.139362,-86.82095,30.425133
96489244,"TownePlace Suites Republic Airport Long Island/Farmingdale",40.728947477933,-73.422110188459,JFKFR,"Hampton Inn  Suites by Hilton Farmingdale Republic Airport",40.729943,-73.424789,20.80977
12309106,"Home2 Suites by Hilton Huntsville Village of Providence",34.7308,-86.6441,HSVVP,"Home2 Suites by Hilton Huntsville Village of Providence",34.751497,-86.693571,30.910774
26367724,"Hampton by Hilton Krakow Airport",50.0664514,19.80135718,KRKMA,"Hampton by Hilton Krakow Airport",50.066217,19.801392,24.226051
59631197,"Homewood Suites by Hilton Cleveland-Solon",41.393864655971,-81.4634411688,CLEMC,"Homewood Suites by Hilton Mentor Cleveland",41.725833,-81.283333,21.435078
57295760,"Tru by Hilton Wichita Falls",33.86611253,-98.52755958,SPSFN,"Hampton Inn by Hilton Wichita Falls North",33.948727,-98.528775,20.818863
42338640,"Holiday Inn Express Hotel & Suites Milwaukee - New Berlin",42.955845777778,-88.106857888889,MKENB,"Hampton Inn and Suites by Hilton New Berlin Milwaukee",42.948616,-88.112263,18.28946
26234491,"Sands Macao",22.192536,113.554553,MFMWA,"Waldorf Astoria Macao",22.145627,113.553427,12.732404
10305771,"Hilton Mallorca Galatzo",39.52865919802,2.47331247793,PMICC,"Hilton Mallorca Galatzo",39.529167,2.473056,28.07371
67034546,"Estay Apartment Weinan",34.50673102,109.45431797,XIYWN,"HGI Weinan Downtown",34.529604,109.484358,11.53546
66087382,"DoubleTree by Hilton Abu Dhabi Yas Island Residences",24.489761877563,54.597491522407,AUHYR,"DoubleTree by Hilton Abu Dhabi Yas Island Residences",24.489572,54.597936,36.193172
76688066,"Cosmopolita Hotel Rome, Tapestry Collection by Hilton",41.89678116458,12.484131559525,CIATA,"Cosmopolita Hotel Rome, Tapestry Collection by Hilton",41.896803,12.484162,30.273687
93237040,"Home2 Suite Shepherdsville Louisville South",38.06636694,-85.69449772,SDFSV,"Home2 Suites by Hilton Shepherdsville Louisville South",38.066559,-85.694405,27.96564
80456695,"Hilton Garden Inn Columbia",38.97448,-92.289317,COUMO,"Home2 Suites by Hilton Columbia",38.9487,-92.310551,12.64105
49851564,"Hilton Kansas City Airport",39.29502766,-94.68284013,MKCSB,"Tru by Hilton Kansas City Airport",39.290074,-94.680084,21.990765
71324331,"Hyatt Place Jaipur Malviya Nagar",26.856364684943,75.824404728367,JAIID,"Hilton Jaipur Malviya Nagar",26.857778,75.828889,24.34947
84433873,"Embassy Suites By Hilton Pittsburgh Downtown",40.44125808,-79.99808685,PITRU,"Tru by Hilton Pittsburgh Downtown",40.445313,-79.99357,17.72311
30018022,"Hotel Marcel New Haven, Tapestry Collection by Hilton",41.2966479,-72.91922102,HVNSD,"Hotel Marcel New Haven, Tapestry Collection by Hilton",41.296692,-72.919436,30.696121
66876353,"Quality Inn Hall of Fame",40.855541333333,-81.421594833333,CAKAA,"The Hall of Fame Village Hotel, Tapestry Collection by Hilton",40.823339,-81.397892,18.983746
11250226,"Ashdod Suites",31.77535149,34.64598484,TLVAS,"Hilton Garden Inn Ashdod",31.805605,34.643017,13.273523
56920982,"Residhome Dijon",47.3182941,5.02812015,DIJSA,"Sainte-Anne Hotel Dijon - Curio Collection by Hilton",47.316808,5.030165,11.591493
98229186,"Home2 Suites by Hilton Tallahassee",30.440721375824,-84.263267813492,VLDAA,"Home2 Suites by Hilton Thomasville",30.840148,-83.941798,16.258207
54242477,"Homewood Suites by Hilton Phoenix North-Happy Valley",33.707027088257,-112.11358069563,PHXNV,"Home2 Suites by Hilton Phoenix North Happy Valley",33.710417,-112.104762,23.963413
73535291,"Nanchang Surprise Hotel",28.54777899,115.92557167,KHNXJ,"DT Resort Nanchang Xinjian",28.154722,115.776389,8.3791065
35885324,"West End Washington DC, Tapestry Collection by Hilton",38.904506278412,-77.048284849695,DCAGC,"West End Washington DC, Tapestry Collection by Hilton",38.904338,-77.048054,34.271843
43199815,"Ramada by Wyndham Lviv",49.823408555448,23.913475865082,LWOLV,"Hampton by Hilton Lviv Airport",49.816724,23.958172,12.530044
29906811,"DoubleTree by Hilton Hotel Jakarta - Diponegoro",-6.198934,106.843148,JKTBT,"DoubleTree by Hilton Jakarta Bintaro Jaya",-6.286136,106.729005,17.732773
60541233,"Hampton Inn by Hilton Toronto-Mississauga West",43.524767889615,-79.650774915344,YTOMG,"Hampton Inn and Suites by Hilton Mississauga Toronto ON",43.649021,-79.70477,24.293957
55886000,"Hotel Elkhart, Tapestry Collection By Hilton",41.68338735,-85.97061228,EKINE,"Hotel Elkhart, Tapestry Collection by Hilton",41.683427,-85.970302,27.19977
18429793,"Hilton Knoxville",35.96258616375,-83.91989320418,TYSKV,"Hilton Garden Inn Knoxville Downtown",35.966492,-83.918617,17.458033
16324342,"Hampton Inn Odessa",31.889025020732,-102.3334890604,MAFOS,"Hampton Inn by Hilton Odessa South I-20",31.826745,-102.355687,18.74284
17134226,"Home2 Suites by Hilton Springdale Cincinnati",39.29710825,-84.48173726,LUKNP,"Home2 Suites by Hilton Newport Cincinnati",39.092625,-84.494868,21.258766
71086044,"Hampton Inn Lead",44.350694,-103.775413,LEDSD,"Hampton Inn by Hilton Lead",44.351,-103.775,20.653975
30612317,"Home2 Suites By Hilton Wildwood The Villages",28.86676936,-82.01407624,OCFWW,"Home2 Suites by Hilton Wildwood The Villages",28.86676,-82.01409,28.720201
27483233,"Hampton Inn Chester",37.356048,-77.401728,PTBCS,"Hampton Inn by Hilton Chester",37.353271,-77.400485,18.574781
29252513,"Home2 Suites by Hilton Las Vegas Northwest",36.28465089,-115.28798121,LASNW,"Home2 Suites by Hilton Las Vegas Northwest",36.28465,-115.287981,28.810188
21772800,"Home2 Suites by Hilton Kingsland",30.79080086,-81.65533443,JAXKL,"Home2 Suites by Hilton Kingsland",30.791261,-81.655227,24.731312
94366662,"Hilton Oakland Airport",37.728549,-122.201877,OAKEC,"Tru by Hilton El Cerrito Oakland",37.922551,-122.317013,16.097256
22147120,"Home2 Suites by Hilton Pigeon Forge",35.80190269,-83.56427795,TYSPG,"Embassy Suites by Hilton Pigeon Forge Resort",35.804134,-83.559447,22.845407
13661360,"Eastern El-Galala Aquapark Ain Sokhna",29.47768757,32.44882598,CAIDM,"DoubleTree by Hilton Ain Al Sokhna - The Groove Al Galala",29.491611,32.427333,24.444317
58393666,"Hilton Garden Inn Sioux Falls Downtown",43.548632,-96.724978,FSDLA,"Canopy by Hilton Sioux Falls Downtown",43.553882,-96.724745,21.411304
23884262,"Home2 Suites by Hilton Miramar Ft. Lauderdale",25.983101811761,-80.347397404299,FLLHP,"Home2 Suites by Hilton Plantation Ft. Lauderdale West",26.105099,-80.251063,25.597624
18798811,"Hampton Inn Paris",39.59201073,-87.69404664,CMIPA,"Hampton Inn by Hilton Paris IL",39.592082,-87.694022,16.296648
82800317,"Tru by Hilton Raleigh Garner",35.700157858371,-78.590390047221,RDURG,"Tru by Hilton Raleigh Garner",35.699713,-78.590411,30.22407
12209782,"Hilton Garden Inn Nashville West End Avenue",36.13926957,-86.8210088,BNAGI,"Hilton Garden Inn Nashville West End Avenue",36.139263,-86.820823,28.350592
89655815,"Four Points by Sheraton Wuchuan Loong Bay",21.40016007,110.90520073,ZHALB,"Hilton Zhanjiang Loong Bay World Wild Resort",21.429797,110.904467,11.162478
57634251,"Qianna Hotel Beihai High-speed Railway Station Branch",21.4693,109.119,BHYRS,"HGI Beihai High-Speed Railway Station",21.465257,109.136565,23.06335
89655815,"Four Points by Sheraton Wuchuan Loong Bay",21.40016007,110.90520073,ZHACI,"Conrad Zhanjiang Loong Bay World Wild Resort",21.429797,110.904467,11.162478
20121506,"Harbin West Street International Hostel",45.76609681,126.61635709,HRBHI,"Hilton Harbin West",45.701451,126.57732,11.289214
89655815,"Four Points by Sheraton Wuchuan Loong Bay",21.40016007,110.90520073,ZHAHI,"Hilton Zhanjiang Loong Bay Ocean World",21.430134,110.948341,11.162478
88123062,"Home2 Suites by Hilton Burleson",32.565333012311,-97.315634856579,DFWJC,"Home2 Suites by Hilton Burleson",32.565535,-97.315594,25.66312
57965120,"Beni Hotel Pristina",42.690673333333,21.123620333333,PRNPR,"Hilton Pristina",42.660811,21.153535,12.405835
61998957,"Tru by Hilton Santee",33.484138007042,-80.472961103006,CAESA,"Tru by Hilton Santee",33.484848,-80.475141,24.991577
68343793,"Orbis Polan Zielona Gora",51.945903035941,15.520288498984,IEGAA,"Hampton by Hilton Zielona Gora",51.940394,15.492972,19.516434
78665506,"Hampton by Hilton Grand Cayman Seven Mile Beach",19.317118278831,-81.383739393848,GCMGC,"Hampton by Hilton Grand Cayman Seven Mile Beach",19.316835,-81.383761,31.312756
86969520,"The Royal Senses Resort & Spa Crete, Curio Collection by Hilton",35.416506339447,24.658247614056,HERRS,"The Royal Senses Resort Crete, Curio Collection by Hilton",35.417004,24.65976,29.42874
96717873,"Homewood Suites by Hilton Worcester",42.26251619,-71.79429449,ORHWS,"Home2 Suites by Hilton Worcester",42.262083,-71.795379,18.867405
10895426,"Hilton Garden Inn Kitchener/Cambridge",43.411775846725,-80.329858660698,YKFCM,"Hampton Inn by Hilton Cambridge Kitchener",43.422926,-80.286878,22.756725
58175542,"Hyatt Hyderabad Gachibowli",17.418943248656,78.342666571862,HYDAD,"Hilton Hyderabad Gachibowli",17.419375,78.359167,20.72359
46863917,"Hilton Porto Gaia",41.135737318973,-8.618467204894,OPOGA,"Hilton Porto Gaia",41.1358,-8.618449,22.147282
46381200,"Hilton Garden Inn Wausau",44.932013829377,-89.662051235782,CWAWA,"Home2 Suites by Hilton Wausau",44.951911,-89.663104,14.73525
65870822,"Hilton Garden Inn Toronto/Oakville",43.503463,-79.668955,YYZAB,"Tru by Hilton Oakville Toronto ON",43.491424,-79.679762,20.128937
46156411,"Homewood Suites by Hilton Denver - Littleton",39.576783,-105.135635,DENNN,"Homewood Suites by Hilton Thornton Denver",39.957916,-105.00206,20.769417
64315040,"Hilton Garden Inn Kyoto Shijo Karasuma",34.998483,135.75990664,ITMKY,"Hilton Garden Inn Kyoto Shijo Karasuma",34.99848,135.75991,29.776188
95868662,"Hilton Grand Vacations Club La Pacifica Los Cabos",22.98159382,-109.7643272,SJDGV,"Hilton Grand Vacations Club La Pacifica Los Cabos",22.981746,-109.764083,32.578354
86602306,"DoubleTree by Hilton Abilene Downtown Convention Center",32.453464118038,-99.733888091367,ABIDT,"DoubleTree by Hilton Abilene Downtown Convention Center",32.454374,-99.734205,30.8461
80105131,"SpringHill Suites The Dunes On Monterey Bay",36.66498418,-121.80822694,MRYCA,"Home2 Suites by Hilton at the Dunes on Monterey Bay",36.665226,-121.807599,24.170113
36827851,"Home2 Suites By Hilton Wilkes-Barre",41.2350766,-75.85264698,AVPBA,"DoubleTree by Hilton Wilkes-Barre",41.250849,-75.8141,22.003021
66976822,"Hotel West & Main Conshohocken Philadelphia, Tapestry by Hilton",40.073366,-75.307878,PHLCO,"Hotel West & Main Conshohocken Philadelphia, Tapestry by Hilton",40.072422,-75.3072,33.69773
71079131,"Hilton Suites Boca Raton",26.366104,-80.168076,BCTBS,"Homewood Suites by Hilton Boca Raton",26.398844,-80.106304,25.554432
61652582,"Hampton Inn By Hilton Carefree",33.82439112,-111.92177096,PHXCF,"Hampton Inn by Hilton Carefree",33.82408,-111.92177,22.798569
56405837,"Homewood Suites by Hilton Greenville, NC",35.61480687,-77.40097161,PGVMB,"Homewood Suites by Hilton Greenville",35.614399,-77.400973,21.65986
27037793,"Home2 Suites by Hilton Hobbs",32.73886703,-103.14631294,HOBHH,"Home2 Suites by Hilton Hobbs",32.738969,-103.146401,24.892155
61082706,"Home2 Suites By Hilton Atlanta West Lithia Springs",33.77011732,-84.59937628,ATLBL,"Homewood Suites by Hilton Lithia Springs Atlanta West",33.771588,-84.607258,27.447895
33252364,"Tru by Hilton Spokane Valley",47.67726431,-117.22344257,GEGSV,"Tru by Hilton Spokane Valley",47.677257,-117.223663,27.336739
42401495,"Home2 Suites by Hilton San Jose South",37.25877741,-121.78466764,SJCIT,"Home2 Suites by Hilton San Jose Downtown",37.328957,-121.884774,22.534847
77447531,"Airport House Southend",51.5362,0.719965,SENSE,"Hampton by Hilton Southend Airport",51.56707,0.700225,16.75371
79112102,"Homewood Suites by Hilton Oxnard",34.220221615695,-119.14425015449,OXRES,"Tru by Hilton Oxnard",34.230335,-119.174768,16.863333
32621120,"Hilton Huizhou Longmen Resort",23.58281433,114.00183243,HUZHI,"Hilton Huizhou",23.110217,114.42592,12.936001
31759357,"Tru by Hilton Naperville Chicago",41.80117689,-88.20800068,LOTRV,"Tru by Hilton Romeoville Chicago",41.651798,-88.125553,20.41182
26062033,"Home2 Suites By Hilton Lakewood Ranch",27.39230731,-82.44854511,SRQLW,"Home2 Suites by Hilton Lakewood Ranch",27.392321,-82.448754,27.282335
12538400,"Hotel Dello Fort Lauderdale Airport, Tapestry Collection by Hilton",26.05137042,-80.14398206,FLLIP,"Hotel Dello Fort Lauderdale Airport, Tapestry Collection by Hilton",26.051307,-80.143832,32.907642
63985931,"Home2 Suites by Hilton St Louis Downtown",38.63095855,-90.19821138,BLVED,"Home2 Suites by Hilton Edwardsville",38.798056,-89.991389,13.462667
91771277,"Courtyard Denver West Golden",39.723941344587,-105.16346775956,DENWC,"Tru by Hilton Golden Denver West",39.72748,-105.181137,18.144323
35088684,"Tru by Hilton Atlanta Galleria Ballpark",33.89815692,-84.47530446,ATLIM,"Hilton Atlanta Galleria Ballpark",33.884004,-84.473189,24.184944
18564866,"Candlewood Suites Enid",36.39049132,-97.85894427,WDGED,"Home2 Suites by Hilton Enid",36.395539,-97.878405,15.384932
75192604,"Hilton Garden Inn Chesterton",41.575555,-87.044119,MDWSC,"Tru by Hilton Chesterton",41.574178,-87.044484,15.590491
77097702,"Graduate Nashville",36.15131197,-86.79984829,GUAAA,"Graduate Test Facility",36.15158,-86.796303,11.866712
52422102,"Hampton Inn & Suites Braselton",34.1092735,-83.7626729,ATLSO,"Hampton Inn & Suites by Hilton Social Circle",33.61122,-83.7048,11.453805
93302044,"Madinah Hilton",24.472091243034,39.610876834575,MEDMG,"DoubleTree by Hilton Madinah Gate",24.4711,39.698206,18.23016
85075462,"Tru by Hilton Smithfield I-95",35.507992916589,-78.323280342328,RDUSF,"Tru by Hilton Smithfield I-95",35.508095,-78.323022,31.160765
96801680,"Tru by Hilton Indianapolis Downtown",39.75886119,-86.15923078,INDEX,"Motto by Hilton Indianapolis Downtown",39.767361,-86.15785,19.084372
77356684,"DoubleTree by Hilton Noumea Ilot Maitre Resort",-22.33348649,166.40993034,NOUDI,"DoubleTree by Hilton Noumea Ilot Maitre Resort",-22.333401,166.410004,37.24568
57865837,"Shasta Lodge Redding",40.587316992752,-122.39047139883,RDDSL,"Homewood Suites by Hilton Shasta Lake Redding",40.681998,-122.352445,22.16267
67036375,"Hilton Guangzhou Science City",23.172298985668,113.45141025264,CANSI,"HGI Guangzhou Science City",23.171701,113.451248,18.900759
50935542,"Home2 Suites By Hilton Frederick",39.36762741,-77.41510466,DCABU,"Home2 Suites by Hilton Ashburn, VA",39.059377,-77.448185,16.355259
76658444,"Homewood Suites By Hilton Oak Creek Milwaukee",42.90296048,-87.9386423,MKEHO,"Homewood Suites by Hilton Oak Creek Milwaukee",42.903389,-87.939611,29.677135
19380604,"Hilton Austin",30.265379049808,-97.738670557737,AUSOM,"Warterloo Park Hotel Austin, Curio Collection by Hilton",30.272222,-97.734444,16.464066
60530753,"Hubers Chalets",47.159340294269,11.862015724182,INNKO,"Hilton Kitzbuehel Oberndorf Resort & Chalets",47.504427,12.359849,8.7647915
88250560,"Hampton Inn Warroad",48.90560613,-95.3205901,TVFWR,"Hampton Inn by Hilton Warroad",48.906369,-95.320818,20.999557
71262433,"Hampton by Hilton Turkistan",43.29728292,68.2768023,CITTK,"Hampton by Hilton Turkistan",43.297396,68.276856,24.317327
76136502,"Motel 6 Savannah Airport Pooler",32.1097346,-81.2313186,SAVOR,"The SoJourn Pooler Savannah Airport, Tapestry Collection by Hilton",32.134595,-81.246704,21.269466
89060317,"Hampton by Hilton Riga Airport",56.922787721948,23.998196324081,RIXRA,"Hampton by Hilton Riga Airport",56.923113,23.998204,23.859571
96956477,"Homewood Suites by Hilton Denton",33.173726,-97.098574,DFWCC,"Home2 Suites by Hilton Denton",33.221889,-97.167857,18.56383
15264273,"Guangzhou Conghua Lakeview Resort Guangzhou",23.1359,113.318,CANCH,"HGI Guangzhou Conghua",23.530075,113.607189,16.66728
45854251,"Travelodge Manchester Trafford Park",53.470612,-2.362388,MANTF,"Hampton by Hilton Manchester Trafford",53.457802,-2.338006,18.191982
17966317,"Hilton Zhuhai",22.189517779386,113.52455129543,ZUHUP,"Zhuhai Downtown, Tapestry Collection by Hilton",22.241096,113.53468,16.4299
42889917,"Canopy by Hilton Dubai Al Seef",25.256118630218,55.311878659901,DXBSE,"Canopy by Hilton Dubai Al Seef",25.256274,55.311944,31.623747
74601506,"Homewood Suites by Hilton Virginia Beach/Norfolk Airport",36.847720341355,-76.178448424373,ORFAB,"Homewood Suites by Hilton Virginia Beach North",36.860368,-75.978783,20.441715
59444066,"Al Seef Heritage Hotel Dubai, Curio Collection by Hilton",25.263895,55.305116,DXBAS,"Al Seef Heritage Hotel Dubai, Curio Collection by Hilton",25.263928,55.305113,32.418293
71956160,"Hampton Inn & Suites Manchester-Bedford",42.942134,-71.466942,MHTRR,"Home2 Suites by Hilton Manchester Bedford Manchester",42.937844,-71.466722,25.246317
78373862,"Home2 Suites by Hilton Bristol",41.65327185,-72.91421997,BDLBT,"Home2 Suites by Hilton Bristol",41.653332,-72.914206,23.018301
71211037,"Microtel Inn & Suites Montreal Airport-Dorval QC",45.48643261,-73.78100415,YMQMJ,"Hampton Inn by Hilton Dorval Montreal Airport QC",45.45354,-73.7347,26.656984
39067975,"Hampton by Hilton Dubai Al Seef",25.256159205757,55.311869076058,DXBAL,"Hampton by Hilton Dubai Al Seef",25.255739,55.311369,28.358421
51247211,"Hilton Garden Inn Pensacola Downtown",30.414568197766,-87.205157,PNSPD,"Homewood Suites by Hilton Pensacola Downtown",30.418078,-87.199607,17.499584
29156284,"Fairfield Inn & Suites Shawnee",35.38719619,-96.90901157,SNLSH,"Home2 Suites by Hilton Shawnee",35.386947,-96.911716,13.213247
94033451,"Home2 Suites by Hilton Milwaukee Airport",42.93762145511,-87.907107070114,MKEGT,"Home2 Suites by Hilton Grafton",43.314028,-87.919083,14.816927
34183131,"Hongshan Urumqi",43.813,87.5922,URCYR,"HGI Urumqi",43.814769,87.603515,10.8301325
65825997,"Fu Yi Hotel Meishan",30.17805669,103.86601272,CTUMJ,"DoubleTree by Hilton Meishan",30.038181,103.857281,10.1977625
44587746,"Ginger Surat City Centre",21.20489038,72.83997296,STVGI,"Hilton Garden Inn Surat City Centre",21.204357,72.839221,19.447094
62245266,"Le Belgrand Hotel Paris Champs Elysees, Tapestry Collection by Hilton",48.870012,2.290821,PARLB,"Le Belgrand Hotel Paris Champs Elysees, Tapestry Collection by Hilton",48.870017,2.290813,36.777195
41102855,"Affordable Inns Denver West - Wheat Ridge",39.783655,-105.113183,DENWR,"Hampton Inn & Suites by Hilton Wheat Ridge Denver West",39.768555,-105.148533,23.387182
47584066,"Hampton Inn Crown Point",41.42043496,-87.33242348,ORDCP,"Hampton Inn by Hilton Crown Point",41.42041,-87.332409,20.636995
66257942,"Hampton Inn & Suites Marina",36.69487118,-121.80297508,MRYHM,"Hampton Inn & Suites by Hilton Marina",36.694868,-121.802992,17.088987
78882273,"Fredericksburg Inn & Suites",30.269416,-98.868626,AUSFB,"Home2 Suites by Hilton Fredericksburg",30.257,-98.854,14.003447
11237840,"Hampton Inn Abingdon",36.70177,-81.974146,VJIAB,"Hampton Inn by Hilton Abingdon",36.700672,-81.971566,21.029299
77994400,"Hampton Inn Los Angeles/Carson",33.87242279086,-118.26351807127,LAXCN,"Hampton Inn by Hilton Los Angeles Convention Center",34.036752,-118.268326,18.670475
28281531,"Hilton McLean Tysons Corner",38.92659,-77.216379,DCAAN,"Hampton Inn by Hilton McLean Tysons Central",38.921269,-77.232216,25.221085
94408135,"Wingate by Wyndham Charlotte Airport South/ I-77 Tyvola",35.165102,-80.89356,CLTTV,"Tru by Hilton Charlotte Tyvola I-77",35.164667,-80.894163,22.016747
13444811,"Homewood Suites by Hilton Los Angeles International Airport",33.94625815,-118.39274093,LAXAA,"Homewood Suites by Hilton Los Angeles Convention Center",34.036752,-118.268326,21.153442
28281531,"Hilton McLean Tysons Corner",38.92659,-77.216379,DCAAA,"Homewood Suites by Hilton McLean Tysons Central",38.921269,-77.232216,25.221085
20953106,"Hilton Greenville",34.856223,-82.336865,GSPGR,"Doubletree by Hilton Greenville Airport",34.86553,-82.260653,17.227974
72819520,"Floral Hotel Suya Thousand Islet Lake",30.27411104,120.15507769,HGHQQ,"A Thousand Moons, Curio Collection by Hilton",30.495225,119.663414,7.1811523
78675793,"Hilton Virginia Beach Oceanfront",36.85909,-75.977851,ORFIG,"Home2 Suites by Hilton Virginia Beach Princess Anne",36.785646,-76.105285,16.918175
76119062,"The Samuel Ryder Hotel St. Albans, Tapestry Collection by Hilton",51.749611,-0.340347,LTNSR,"The Samuel Ryder Hotel St Albans, Tapestry Collection by Hilton",51.749722,-0.340278,36.9608
71354615,"The Roslyn, Tapestry Collection by Hilton",40.801989,-73.652588,LGARS,"The Roslyn, Tapestry Collection by Hilton",40.801579,-73.652302,28.322021
15746491,"Hilton Garden Inn Jeffersonville Louisville North",38.345877079628,-85.709042824191,SDFJF,"Hilton Garden Inn Jeffersonville Louisville North",38.346007,-85.708816,29.193819
21660833,"Home2 Suites By Hilton Petaluma",38.27184733,-122.66809995,OAKPT,"Home2 Suites by Hilton Petaluma",38.271773,-122.668092,25.085608
12177586,"Home2 Suites by Hilton Quebec City",46.78646225,-71.35885825,YQBWH,"Home2 Suites by Hilton Quebec City, QC",46.786514,-71.358754,25.559357
66199346,"Holiday Inn Express & Suites Forney",32.75567416,-96.46387371,DFWFO,"Hampton Inn & Suites by Hilton Forney",32.75,-96.453,15.147898
62319884,"Atocha Hotel Madrid, Tapestry Collection by Hilton",40.4104159,-3.6954733,MADAT,"Atocha Hotel Madrid, Tapestry Collection by Hilton",40.410614,-3.695308,29.981003
45550237,"Home2 Suites By Hilton Lubbock",33.551739881127,-101.94474861864,LBBAQ,"Home2 Suites by Hilton Lubbock University",33.594,-101.856,24.07802
